     2.11           OBSERVATION DATA    G (GPS)             RINEX VERSION / TYPE
teqc  2013Mar15                         20150104 02:40:39UTCPGM / RUN BY / DATE
Automatic           ASI - TELESPAZIO                        OBSERVER / AGENCY
20203888            TRIMBLE 4700        Nav 1.20 Sig 0.00   REC # / TYPE / VERS
11730               TRM29659.00     NONE                    ANT # / TYPE
Linux2.4.20-8|i386|gcc|Win32-MinGW32|=                      COMMENT
teqc  2013Mar15     ASI - Telespazio    20150104 02:14:14UTCCOMMENT
     2              OBSERVATION DATA                        COMMENT
DAT2RIN 2.51 TRS    ASI - TELESPAZIO    03JAN15  0:59:44 GMTCOMMENT
----------------------------------------------------------- COMMENT
Offset from BOTTOM OF ANTENNA to PHASE CENTER is 110.0 mm   COMMENT
----------------------------------------------------------- COMMENT
GENO                                                        MARKER NAME
12712M002                                                   MARKER NUMBER
  4507892.2833   707621.2880  4441605.1468                  APPROX POSITION XYZ
        0.0000        0.0000        0.0000                  ANTENNA: DELTA H/E/N
*** Above antenna height is from mark to BOTTOM OF ANTENNA. COMMENT
     1     1                                                WAVELENGTH FACT L1/2
     5    L1    C1    L2    P2    D1                        # / TYPES OF OBSERV
    30.0000                                                 INTERVAL
  2015     1     3     0     0    0.0000000     GPS         TIME OF FIRST OBS
                                                            END OF HEADER
 15  1  3  0  0  0.0000000  0  8G02G06G12G14G24G25G29G31
 -27911742.289 7  22684667.490 7 -21735044.12448  22684659.26048      1655.820
 -20997264.715 2  24483232.106 2 -16340610.31644  24483230.04444      -534.697
 -49462130.855 6  21407934.460 6 -38519166.46649  21407928.73349      -199.771
 -30110533.578 7  22488814.054 7 -23400602.05648  22488809.51248       251.694
 -38100381.445 6  23175568.876 6 -30088063.57547  23175567.22347     -1641.851
 -46204203.867 8  20385286.569 8 -35991785.27849  20385283.52649      2020.376
 -33838598.309 7  20868254.468 7 -26349371.82849  20868249.45149      3764.653
 -14566468.988 6  23057505.747 6 -10864815.19348  23057500.24648      4677.510
 15  1  3  0  0 30.0000000  0  8G02G06G12G14G24G25G29G31
 -27961157.156 6  22675264.117 6 -21773549.22148  22675255.80648      1638.628
 -20980993.465 2  24486328.411 2 -16327931.37945  24486327.13645      -549.614
 -49456026.637 7  21409096.005 7 -38514409.95349  21409090.17149      -207.046
 -30117833.148 7  22487425.015 7 -23406290.03147  22487419.70547       235.078
 -38051015.148 6  23184963.003 6 -30049596.34247  23184961.27947     -1649.150
 -46264657.164 8  20373782.675 8 -36038891.74049  20373779.75449      2009.917
 -33951314.414 7  20846805.296 7 -26437202.55549  20846800.70249      3749.898
 -14706683.715 6  23030823.795 6 -10974073.39548  23030817.91348      4670.147
 15  1  3  0  1  0.0000000  0  8G02G06G12G14G24G25G29G31
 -28010048.172 6  22665960.519 6 -21811646.09548  22665952.73148      1620.767
 -20964276.938 1  24489509.446 1 -16314905.48043  24489508.92643      -564.712
 -49449697.953 6  21410300.349 6 -38509478.52349  21410294.80449      -214.839
 -30124629.391 7  22486131.769 7 -23411585.82447  22486126.30447       218.032
 -38001423.988 6  23194399.944 6 -30010953.89147  23194397.66147     -1656.875
 -46324790.301 8  20362339.709 8 -36085748.72949  20362336.74349      1998.926
 -34063582.578 7  20825441.361 7 -26524684.22449  20825436.54049      3734.673
 -14846670.730 6  23004185.184 6 -11083154.17348  23004179.48748      4662.276
 15  1  3  0  1 30.0000000  0  8G02G06G12G14G24G25G29G31
 -28058415.148 6  22656756.600 6 -21849334.64148  22656748.03148      1603.418
 -20947117.680 1  24492774.896 1                                      -579.341
 -49443145.023 6  21411547.356 6 -38504372.35449  21411541.82049      -222.290
 -30130924.336 6  22484933.900 6 -23416490.99947  22484928.15947       201.450
 -37951609.773 6  23203879.333 6 -29972137.64647  23203876.61047     -1664.268
 -46384603.246 8  20350957.678 8 -36132356.21649  20350955.09149      1988.389
 -34175401.766 7  20804162.871 7 -26611816.05549  20804157.63349      3719.697
 -14986427.535 6  22977590.366 6 -11192055.58748  22977585.19148      4654.648
 15  1  3  0  2  0.0000000  0  7G02G12G14G24G25G29G31
 -28106260.367 7  22647651.993 7 -21886616.63748  22647643.07448      1586.856
 -49436370.371 7  21412836.515 7 -38499093.43149  21412831.18249      -228.877
 -30136722.402 7  22483830.575 7 -23421008.99447  22483825.57447       185.698
 -37901576.777 6  23213400.302 6 -29933150.91647  23213398.42447     -1670.693
 -46444098.285 8  20339636.145 8 -36178715.99549  20339633.44849      1978.525
 -34286773.641 7  20782969.503 7 -26698599.32549  20782964.73749      3705.591
 -15125954.313 6  22951039.308 6 -11300777.74548  22951033.76448      4647.671
 15  1  3  0  2 30.0000000  0  8G02G06G12G14G24G25G29G31
 -28153591.074 7  22638645.290 7 -21923497.68748  22638636.94548      1569.414
 -20911493.949 1  24499553.595 1                                      -607.495
 -49429382.156 7  21414166.347 7 -38493648.08049  21414160.95849      -236.152
 -30142033.105 7  22482819.985 7 -23425147.20847  22482815.59447       169.243
 -37851333.762 6  23222961.221 6 -29894000.51847  23222958.98547     -1677.954
 -46503282.363 8  20328373.796 8 -36224833.46249  20328371.00649      1967.920
 -34397704.332 7  20761860.097 7 -26785038.82149  20761855.34249      3690.620
 -15265256.250 6  22924531.021 6 -11409324.68848  22924525.17348      4639.907
 15  1  3  0  3  0.0000000  0  7G02G12G14G24G25G29G31
 -28200405.313 7  22629736.839 7 -21959976.31448  22629728.62048      1551.831
 -49422179.469 7  21415537.005 7 -38488035.61049  21415531.22349      -243.706
 -30146856.727 7  22481902.081 7 -23428905.88847  22481896.99347       152.656
 -37800881.301 6  23232561.964 6 -29854686.92447  23232559.77747     -1685.269
 -46562153.492 8  20317171.016 8 -36270707.07049  20317168.22949      1957.124
 -34508191.410 7  20740835.105 7 -26871132.62849  20740829.59849      3675.459
 -15404329.266 6  22898066.290 6 -11517693.26248  22898060.57748      4631.899
 15  1  3  0  3 30.0000000  0  8G02G06G12G14G24G25G29G31
 -28246710.004 7  22620925.355 7 -21996057.87248  22620917.20648      1534.853
 -20874165.602 1  24506657.153 1                                      -636.309
 -49414770.234 7  21416946.936 7 -38482262.19549  21416941.35849      -250.732
 -30151202.313 6  22481075.135 6 -23432292.08947  22481069.81747       136.626
 -37750228.063 6  23242200.850 6 -29815216.88047  23242198.66847     -1692.002
 -46620718.535 8  20306026.491 8 -36316342.17749  20306023.41449      1946.812
 -34618241.000 7  20719893.376 7 -26956885.54649  20719888.81549      3660.820
 -15543178.027 6  22871644.243 6 -11625887.10348  22871638.80248      4624.292
 15  1  3  0  4  0.0000000  0  8G02G06G12G14G24G25G29G31
 -28292496.457 7  22612212.469 7 -22031735.63148  22612204.76948      1517.637
 -20854866.648 1  24510329.631 1                                      -650.361
 -49407145.543 7  21418397.840 7 -38476320.89649  21418392.24349      -257.666
 -30155063.570 6  22480340.363 6 -23435300.89047  22480335.02147       120.728
 -37699367.375 6  23251879.258 6 -29775585.17847  23251877.41247     -1698.799
 -46678968.672 8  20294941.864 8 -36361731.89549  20294939.05749      1936.460
 -34727843.625 7  20699036.668 7 -27042290.18549  20699031.83649      3646.064
 -15681792.090 6  22845266.856 6 -11733898.04448  22845260.80148      4616.665
 15  1  3  0  4 30.0000000  0  8G02G06G12G14G24G25G29G31
 -28337756.852 7  22603599.673 7 -22067003.46848  22603591.44348      1500.039
 -20835136.324 1  24514084.272 1                                      -664.712
 -49399298.238 7  21419891.144 7 -38470206.14949  21419885.24549      -265.117
 -30158434.648 6  22479698.855 6 -23437927.70847  22479693.28647       104.297
 -37648292.793 6  23261598.389 6 -29735786.81847  23261596.80247     -1705.942
 -46736895.621 8  20283918.735 8 -36406869.78049  20283915.57049      1925.601
 -34836990.883 7  20678266.626 7 -27127339.99249  20678261.93049      3630.757
 -15820160.855 6  22818936.119 6 -11841717.86248  22818930.18148      4608.374
 15  1  3  0  5  0.0000000  0  8G02G06G12G14G24G25G29G31
 -28382502.484 7  22595084.867 7 -22101870.18248  22595076.92148      1483.296
 -20814988.527 1  24517918.430 1                                      -678.096
 -49391240.129 7  21421424.589 7 -38463927.10549  21421418.69149      -271.797
 -30161328.707 6  22479148.123 6 -23440182.85447  22479142.66947        88.921
 -37597018.055 6  23271355.682 6 -29695832.50247  23271353.58147     -1712.148
 -46794510.566 8  20272954.994 8 -36451764.54549  20272952.01149      1915.635
 -34945692.672 7  20657581.342 7 -27212042.68349  20657576.37349      3616.274
 -15958293.344 6  22792650.354 6 -11949353.54248  22792644.42648      4600.762
 15  1  3  0  5 30.0000000  0  8G02G06G12G14G24G25G29G31
 -28426728.711 7  22586668.815 7 -22136332.17048  22586661.71748      1465.581
 -20794420.727 1  24521832.703 1                                      -692.729
 -49382967.137 7  21422998.876 7 -38457480.62249  21422993.18949      -279.189
 -30163743.629 6  22478688.620 6 -23442064.61647  22478683.05647        72.651
 -37545539.813 6  23281151.686 6 -29655719.58947  23281150.38247     -1719.189
 -46851808.609 8  20262051.550 8 -36496412.38349  20262048.45649      1904.761
 -35053943.781 7  20636981.832 7 -27296394.18549  20636976.80149      3600.957
 -16096182.289 6  22766410.910 6 -12056799.49148  22766404.60648      4592.344
 15  1  3  0  6  0.0000000  0  8G02G06G12G14G24G25G29G31
 -28470433.207 7  22578352.083 7 -22170387.61648  22578345.08548      1448.008
 -20773433.297 1  24525826.826 1                                      -706.870
 -49374477.680 7  21424614.364 7 -38450865.48749  21424608.77649      -286.665
 -30165679.254 6  22478320.338 6 -23443572.91147  22478315.58447        56.450
 -37493858.215 6  23290986.445 6 -29615448.22147  23290984.07547     -1726.133
 -46908787.375 8  20251208.853 8 -36540811.42149  20251206.05949      1893.857
 -35161741.090 7  20616468.685 7 -27380392.07949  20616463.41749      3585.625
 -16233824.066 6  22740218.510 6 -12164052.83148  22740212.09048      4583.779
 15  1  3  0  6 30.0000000  0  7G02G12G14G24G25G29G31
 -28513612.723 7  22570135.265 7 -22204033.97648  22570127.85648      1430.439
 -49365768.797 7  21426271.659 7 -38444079.34549  21426266.18449      -294.038
 -30167134.617 6  22478043.445 6 -23444706.98247  22478038.49247        40.396
 -37441971.621 6  23300860.214 6 -29575017.15947  23300858.55047     -1732.974
 -46965443.273 8  20240427.589 8 -36584958.87549  20240424.85149      1883.086
 -35269080.738 7  20596042.637 7 -27464033.36749  20596037.81049      3570.273
 -16371212.664 6  22714074.294 6 -12271108.87648  22714067.73448      4575.327
 15  1  3  0  7  0.0000000  0  7G02G12G14G24G25G29G31
 -28556271.500 7  22562017.554 7 -22237274.58748  22562009.82448      1413.574
 -49356844.613 7  21427969.901 7 -38437125.43649  21427963.90349      -300.771
 -30168115.621 6  22477856.802 6 -23445471.42347  22477851.39747        25.161
 -37389885.492 6  23310771.910 6 -29534430.56147  23310769.73347     -1739.243
 -47021779.844 8  20229707.098 8 -36628857.50149  20229704.13949      1872.861
 -35375965.527 7  20575703.130 7 -27547320.20849  20575698.31149      3555.498
 -16508349.563 6  22687977.994 6 -12377968.81248  22687971.59748      4567.329
 15  1  3  0  7 30.0000000  0  7G02G12G14G24G25G29G31
 -28598418.293 7  22553997.332 7 -22270116.23448  22553989.64148      1396.226
 -49347714.566 7  21429707.291 7 -38430011.13949  21429701.70349      -307.896
 -30168633.238 6  22477758.300 6 -23445874.80147  22477752.66447         9.434
 -37337610.332 6  23320719.568 6 -29493696.70547  23320717.67647     -1745.879
 -47077805.613 8  20219045.730 8 -36672513.95749  20219042.78449      1862.197
 -35482403.430 7  20555448.665 7 -27630258.82649  20555443.62749      3540.337
 -16645241.137 6  22661928.378 6 -12484637.56348  22661921.96248      4558.770
 15  1  3  0  8  0.0000000  0  7G02G12G14G24G25G29G31
 -28640046.281 7  22546075.768 7 -22302553.63248  22546067.52648      1379.053
 -49338373.402 7  21431484.910 7 -38422732.32249  21431479.17749      -314.775
 -30168683.031 6  22477748.803 6 -23445913.61347  22477743.64047        -6.006
 -37285142.086 6  23330703.950 6 -29452812.37547  23330702.77147     -1752.041
 -47133513.941 8  20208444.764 8 -36715923.03749  20208442.00949      1851.758
 -35588387.469 7  20535280.574 7 -27712843.78549  20535275.53049      3525.332
 -16781878.555 6  22635927.114 6 -12591108.25548  22635921.16648      4550.415
 15  1  3  0  8 30.0000000  0  7G02G12G14G24G25G29G31
 -28681152.125 7  22538253.649 7 -22334584.14348  22538245.87548      1361.582
 -49328817.340 7  21433303.444 7 -38415286.05449  21433297.66149      -322.026
 -30168263.840 6  22477828.589 6 -23445586.99747  22477823.57947       -21.606
 -37232478.801 5  23340725.448 5 -29411776.03547  23340723.66547     -1758.564
 -47188900.820 8  20197904.995 8 -36759081.64749  20197902.11249      1840.977
 -35693913.203 7  20515199.701 7 -27795071.62749  20515194.71049      3510.005
 -16918256.320 6  22609975.285 6 -12697376.62348  22609968.92748      4541.704
 15  1  3  0  9  0.0000000  0  7G02G12G14G24G25G29G31
 -28721736.371 7  22530530.685 7 -22366208.21348  22530523.00748      1344.136
 -49319046.555 7  21435162.796 7 -38407672.46249  21435156.95549      -329.170
 -30167378.320 6  22477997.120 6 -23444896.98947  22477992.02047       -37.178
 -37179622.781 6  23350783.637 6 -29370589.56047  23350782.23047     -1764.976
 -47243966.449 8  20187426.361 8 -36801989.93649  20187423.24349      1830.171
 -35798980.277 7  20495206.112 7 -27876942.07049  20495200.98649      3494.566
 -17054371.617 6  22584073.443 6 -12803440.46448  22584067.44348      4532.783
 15  1  3  0  9 30.0000000  0  7G02G12G14G24G25G29G31
 -28761800.426 7  22522906.725 7 -22397426.95548  22522899.03548      1327.197
 -49309063.309 7  21437062.535 7 -38399893.32349  21437056.31649      -335.957
 -30166029.570 6  22478253.811 6 -23443846.04447  22478249.37947       -52.314
 -37126576.664 6  23360877.947 6 -29329254.93047  23360876.90747     -1770.918
 -47298711.652 8  20177008.688 8 -36844648.53149  20177005.99649      1819.927
 -35903588.930 8  20475299.763 8 -27958455.30949  20475294.64249      3479.648
 -17190224.012 6  22558221.642 6 -12909299.46848  22558215.71848      4524.409
 15  1  3  0 10  0.0000000  0  7G02G12G14G24G25G29G31
 -28801359.008 7  22515378.970 7 -22428251.81748  22515371.20048      1310.039
 -49298882.840 7  21438999.842 7 -38391960.51549  21438993.54149      -342.788
 -30164235.102 6  22478595.286 6 -23442447.77147  22478589.97647       -67.383
 -37073357.332 6  23371005.285 6 -29287785.35547  23371003.75747     -1777.075
 -47353150.957 7  20166649.222 7 -36887068.77549  20166646.39849      1809.409
 -36007753.023 7  20455477.988 7 -28039622.12049  20455473.07149      3464.600
 -17325825.863 6  22532417.510 6 -13014963.23648  22532411.69748      4515.747
 15  1  3  0 10 30.0000000  0  7G02G12G14G24G25G29G31
 -28840399.176 6  22507949.854 6 -22458672.73648  22507942.15948      1292.622
 -49288492.398 7  21440977.088 7 -38383864.08249  21440971.57449      -349.878
 -30161983.953 6  22479023.663 6 -23440693.63647  22479018.28447       -82.705
 -37019953.566 6  23381167.684 6 -29246172.04747  23381166.83947     -1783.140
 -47407270.918 8  20156350.540 8 -36929240.18049  20156347.26149      1798.623
 -36111458.910 7  20435743.419 7 -28120431.89949  20435738.74749      3449.224
 -17461161.383 6  22506664.033 6 -13120419.47648  22506658.49148      4506.704
 15  1  3  0 10 59.9990000  0  7G02G12G14G24G25G29G31
 -28878926.383 7  22500618.379 7 -22488693.92448  22500611.19948      1275.708
 -49277899.547 7  21442992.825 7 -38375609.92849  21442987.38049      -356.514
 -30159284.660 6  22479537.284 6 -23438590.31147  22479531.67747       -97.441
 -36966374.777 6  23391363.385 6 -29204422.35047  23391362.38847     -1788.950
 -47461075.957 8  20146111.785 8 -36971166.18049  20146108.68049      1788.272
 -36214708.621 7  20416095.632 7 -28200886.21449  20416090.98549      3434.185
 -17596230.020 6  22480961.312 6 -13225667.77348  22480955.45748      4498.003
 15  1  3  0 11 29.9990000  0  7G02G12G14G24G25G29G31
 -28916945.430 7  22493383.534 7 -22518319.15648  22493375.69848      1258.872
 -49267105.125 7  21445046.949 7 -38367198.72549  21445041.16849      -363.135
 -30156141.234 6  22480135.445 6 -23436140.92747  22480130.62447      -112.144
 -36912621.977 6  23401592.272 6 -29162537.07347  23401590.69847     -1794.546
 -47514571.238 8  20135931.966 8 -37012850.81849  20135929.04649      1778.032
 -36317510.609 7  20396533.045 7 -28280991.65549  20396527.99749      3419.234
 -17731040.469 6  22455307.709 6 -13330714.86248  22455302.06748      4489.316
 15  1  3  0 11 59.9990000  0  7G02G12G14G24G25G29G31
 -28954442.391 7  22486248.150 7 -22547537.55848  22486240.88048      1240.811
 -49256097.746 7  21447141.614 7 -38358621.56249  21447136.05249      -370.889
 -30152543.715 6  22480820.066 6 -23433337.67847  22480815.52047      -127.813
 -36858686.184 6  23411855.996 6 -29120509.19447  23411854.35947     -1801.235
 -47567742.145 8  20125813.876 8 -37054282.70149  20125810.85149      1766.558
 -36419848.051 7  20377058.868 7 -28360735.11249  20377053.61849      3403.154
 -17865573.465 7  22429706.919 7 -13435545.77448  22429700.54248      4479.409
 15  1  3  0 12 29.9990000  0  7G02G12G14G24G25G29G31
 -28991416.855 6  22479212.135 6 -22576348.82548  22479205.11348      1224.185
 -49244877.484 7  21449276.757 7 -38349878.50649  21449271.42249      -377.163
 -30148493.863 6  22481590.766 6 -23430181.98447  22481586.56647      -142.129
 -36804568.082 6  23422154.406 6 -29078339.27847  23422151.68347     -1806.519
 -47620587.563 8  20115757.723 8 -37095460.94949  20115755.23249      1756.519
 -36521719.590 8  20357673.373 8 -28440115.51849  20357668.22849      3388.379
 -17999825.484 6  22404159.583 6 -13540157.73048  22404153.62048      4470.801
 15  1  3  0 12 59.9990000  0  7G02G12G14G24G25G29G31
 -29027883.809 7  22472272.713 7 -22604764.62448  22472264.02948      1207.085
 -49233459.082 7  21451449.607 7 -38340981.07049  21451444.41849      -383.921
 -30144008.734 6  22482444.275 6 -23426687.08247  22482439.44947      -156.777
 -36750284.676 6  23432484.296 6 -29036040.53647  23432481.68547     -1812.148
 -47673122.156 8  20105760.737 8 -37136396.99949  20105758.07549      1745.967
 -36623139.484 8  20338373.818 8 -28519143.99649  20338368.99449      3373.135
 -18133809.410 6  22378663.274 6 -13644560.78648  22378657.35148      4461.626
 15  1  3  0 13 29.9990000  0  7G02G12G14G24G25G29G31
 -29063838.320 7  22465430.785 7 -22632781.10548  22465423.08748      1189.810
 -49221838.473 7  21453660.976 7 -38331926.08348  21453655.80748      -390.854
 -30139085.281 6  22483381.185 6 -23422850.65147  22483375.70847      -171.450
 -36695832.488 5  23442846.195 5 -28993610.25747  23442843.73447     -1817.998
 -47725340.258 8  20095823.972 8 -37177086.44449  20095820.93249      1735.190
 -36724101.836 7  20319161.339 7 -28597815.95049  20319156.37249      3357.666
 -18267517.754 6  22353219.414 6 -13748749.10348  22353213.45848      4452.143
 15  1  3  0 13 59.9990000  0  7G02G12G14G24G25G29G31
 -29099267.820 6  22458688.685 6 -22660388.49448  22458681.35348      1172.339
 -49210002.535 7  21455913.283 7 -38322703.27648  21455908.05448      -398.096
 -30133713.039 6  22484403.509 6 -23418664.51047  22484398.30047      -186.431
 -36641200.199 6  23453242.337 6 -28951039.65747  23453240.68247     -1823.975
 -47777228.895 7  20085949.905 7 -37217519.14849  20085947.10149      1724.170
 -36824593.070 8  20300038.492 8 -28676120.79649  20300033.07649      3341.909
 -18400935.148 7  22327830.936 7 -13852710.67548  22327825.00948      4442.476
 15  1  3  0 14 29.9990000  0  7G02G12G14G24G25G29G31
 -29134189.051 7  22452043.377 7 -22687599.83748  22452034.84248      1155.542
 -49197967.434 7  21458203.452 7 -38313325.29648  21458197.42148      -404.561
 -30127910.691 6  22485507.702 6 -23414143.23647  22485502.44947      -200.527
 -36586406.105 6  23463669.254 6 -28908342.97247  23463667.16547     -1829.136
 -47828803.875 8  20076135.538 8 -37257707.44349  20076132.55449      1713.892
 -36924628.563 8  20281002.350 8 -28754070.52649  20280997.15149      3326.934
 -18534075.070 7  22302495.263 7 -13956456.05348  22302489.94448      4433.369
 15  1  3  0 14 59.9990000  0  7G02G12G14G24G25G29G31
 -29168596.133 7  22445495.900 7 -22714410.54348  22445488.47448      1138.286
 -49185728.047 7  21460532.568 7 -38303788.13348  21460527.00648      -411.455
 -30121674.863 6  22486694.383 6 -23409284.17447  22486688.83547      -215.186
 -36531446.395 6  23474127.705 6 -28865517.24147  23474125.31147     -1834.907
 -47880058.941 8  20066382.031 8 -37297646.46149  20066379.24849      1703.091
 -37024201.684 8  20262054.214 8 -28831659.96649  20262048.57949      3311.314
 -18666928.941 7  22277214.020 7 -14059978.54248  22277208.30748      4423.643
 15  1  3  0 15 29.9990000  0  7G02G12G14G24G25G29G31
 -29202487.941 7  22439046.491 7 -22740819.74148  22439039.16248      1121.147
 -49173284.328 7  21462900.555 7 -38294091.74448  21462895.20148      -418.184
 -30115006.262 6  22487963.423 6 -23404087.88947  22487957.66647      -229.438
 -36476321.164 6  23484617.714 6 -28822562.53647  23484615.57547     -1840.205
 -47930992.359 8  20056689.727 8 -37337334.84249  20056687.03549      1692.480
 -37123310.883 8  20243194.376 8 -28908887.90149  20243189.49249      3295.967
 -18799493.336 7  22251987.865 7 -14163275.44348  22251981.88248      4414.009
 15  1  3  0 15 59.9990000  0  7G02G12G14G24G25G29G31
 -29235862.750 7  22432695.484 7 -22766826.05648  22432687.54548      1104.238
 -49160633.504 7  21465307.869 7 -38284233.98148  21465302.74148      -424.819
 -30107905.125 6  22489314.744 6 -23398554.56247  22489310.64247      -243.525
 -36421030.477 6  23495139.284 6 -28779478.91547  23495137.72947     -1845.405
 -47981601.871 8  20047059.057 8 -37376770.82749  20047056.17049      1681.924
 -37221953.391 8  20224423.340 8 -28985752.18449  20224417.72549      3280.654
 -18931763.977 7  22226817.597 7 -14266343.46948  22226811.73548      4404.522
 15  1  3  0 16 29.9990000  0  7G02G12G14G24G25G29G31
 -29268729.168 7  22426441.172 7 -22792436.26048  22426433.66648      1086.895
 -49147784.055 7  21467753.037 7 -38274221.45348  21467747.34448      -431.753
 -30100382.305 6  22490746.292 6 -23392692.65447  22490741.41547      -257.959
 -36365584.285 6  23505690.397 6 -28736274.12747  23505688.45347     -1850.889
 -48031895.254 8  20037488.532 8 -37415960.47749  20037485.81749      1671.006
 -37320136.672 8  20205739.656 8 -29062258.62449  20205734.74049      3264.971
 -19063746.598 7  22201702.094 7 -14369187.06348  22201695.65348      4394.375
 15  1  3  0 16 59.9990000  0  7G02G12G14G24G25G29G31
 -29301083.883 7  22420284.259 7 -22817647.72048  22420276.53148      1069.829
 -49134733.051 7  21470236.645 7 -38264051.84548  21470231.01848      -438.525
 -30092436.488 5  22492258.331 5 -23386501.12047  22492253.33947      -271.992
 -36309980.613 6  23516271.484 6 -28692946.58447  23516269.48447     -1856.147
 -48081868.406 8  20027978.947 8 -37454900.59949  20027976.27149      1660.288
 -37417856.375 8  20187144.177 8 -29138403.84449  20187138.98449      3249.473
 -19195434.723 7  22176642.622 7 -14471801.18548  22176636.32448      4384.541
 15  1  3  0 17 29.9990000  0  7G02G12G14G24G25G29G31
 -29332933.555 7  22414223.450 7 -22842465.62348  22414214.90948      1053.389
 -49121487.102 7  21472757.287 7 -38253730.32948  21472751.90148      -444.639
 -30084076.461 6  22493849.172 6 -23379986.84047  22493843.89547      -285.449
 -36254227.281 6  23526880.981 6 -28649502.45747  23526879.46747     -1860.786
 -48131527.395 8  20018529.157 8 -37493595.91649  20018526.26549      1650.142
 -37515118.227 8  20168635.848 8 -29214192.28249  20168630.89749      3234.526
 -19326832.387 7  22151638.424 7 -14574188.95548  22151631.95348      4375.137
 15  1  3  0 17 59.9990000  0  7G02G12G14G24G25G29G31
 -29364274.973 7  22408259.381 7 -22866887.51648  22408251.66948      1035.615
 -49108043.164 7  21475315.530 7 -38243254.57448  21475310.32448      -452.114
 -30075301.133 6  22495519.059 6 -23373148.94947  22495512.98047      -300.093
 -36198322.898 6  23537519.219 6 -28605940.59747  23537516.97547     -1866.645
 -48180868.281 8  20009139.903 8 -37532043.37149  20009136.59449      1638.721
 -37611918.277 8  20150215.409 8 -29289620.88849  20150209.98749      3218.267
 -19457933.648 7  22126690.641 7 -14676345.77048  22126684.78548      4364.316
 15  1  3  0 18 29.9990000  0  7G02G12G14G24G25G29G31
 -29395100.938 7  22402393.428 7 -22890907.72848  22402386.10648      1019.404
 -49094394.102 7  21477912.831 7 -38232618.97548  21477907.08348      -457.900
 -30066105.207 6  22497269.028 6 -23365983.33147  22497263.38147      -313.125
 -36142261.703 6  23548187.259 6 -28562256.57947  23548185.63947     -1870.850
 -48229883.141 8  19999812.685 8 -37570236.76349  19999809.62549      1628.784
 -37708248.262 8  20131884.422 8 -29364683.19749  20131879.20749      3203.638
 -19588728.457 7  22101801.210 7 -14778263.78348  22101794.87048      4355.122
 15  1  3  0 18 59.9990000  0  7G02G12G14G24G25G29G31
 -29425417.738 7  22396624.312 7 -22914531.22048  22396616.58448      1001.680
 -49080545.656 7  21480548.147 7 -38221827.97748  21480541.78048      -465.454
 -30056496.668 5  22499097.489 5 -23358496.17947  22499092.71947      -327.539
 -36086051.105 5  23558883.746 5 -28518456.12647  23558882.19547     -1876.611
 -48278577.254 8  19990546.495 8 -37608180.23349  19990543.64149      1617.349
 -37804113.230 8  20113641.921 8 -29439383.16449  20113636.79449      3187.310
 -19719219.965 7  22076969.517 7 -14879945.46048  22076963.67948      4344.155
 15  1  3  0 19 29.9990000  0  7G02G12G14G24G25G29G31
 -29455223.547 7  22390952.491 7 -22937756.51048  22390944.72648       984.966
 -49066495.246 7  21483221.911 7 -38210879.60948  21483216.24348      -471.699
 -30046475.988 6  22501004.386 6 -23350687.85847  22500999.85647      -340.889
 -36029690.836 5  23569608.716 5 -28474539.05147  23569606.74547     -1881.025
 -48326948.043 8  19981341.830 8 -37645871.75549  19981339.08949      1606.973
 -37899510.441 8  20095488.423 8 -29513718.65349  20095483.39049      3172.046
 -19849403.301 7  22052196.474 7 -14981387.01948  22052190.79548      4334.199
 15  1  3  0 19 59.9990000  0  7G02G12G14G24G25G29G31
 -29484517.133 7  22385378.104 7 -22960582.67848  22385371.00248       968.281
 -49052242.852 7  21485934.071 7 -38199773.88348  21485928.78148      -478.022
 -30036044.398 5  22502989.471 5 -23342559.36547  22502984.76047      -354.175
 -35973181.391 5  23580362.093 5 -28430505.73547  23580360.29147     -1885.767
 -48374994.051 8  19972198.972 8 -37683310.20549  19972196.31249      1596.533
 -37994438.477 8  20077424.214 8 -29587688.53449  20077418.94349      3156.836
 -19979274.984 7  22027482.696 7 -15082585.73048  22027477.06648      4324.238
 15  1  3  0 20 29.9990000  0  7G02G12G14G24G25G29G31
 -29513301.422 7  22379900.637 7 -22983012.00548  22379893.20248       950.474
 -49037790.871 7  21488684.201 7 -38188512.61848  21488679.28948      -485.630
 -30025206.379 6  22505051.912 6 -23334114.17447  22505048.02547      -368.423
 -35916527.105 5  23591143.088 5 -28386359.58147  23591141.23447     -1891.450
 -48422717.051 8  19963117.585 8 -37720496.96549  19963114.43149      1584.819
 -38088898.910 8  20059448.999 8 -29661294.05849  20059443.91249      3140.361
 -20108834.773 7  22002828.239 7 -15183541.41148  22002822.64648      4312.944
 15  1  3  0 20 59.9990000  0  7G02G12G14G24G25G29G31
 -29541578.793 7  22374519.667 7 -23005046.31248  22374511.88548       934.395
 -49023141.258 7  21491471.991 7 -38177097.36349  21491466.11149      -491.338
 -30013966.102 6  22507190.874 6 -23325355.53447  22507185.65247      -381.104
 -35859730.945 5  23601951.051 5 -28342102.82647  23601949.59247     -1895.293
 -48470118.324 8  19954097.427 8 -37757433.01749  19954094.73849      1575.029
 -38182892.590 8  20041562.616 8 -29734535.87349  20041556.99449      3125.625
 -20238081.871 7  21978233.266 7 -15284253.42448  21978228.01148      4303.306
 15  1  3  0 21 29.9990000  0  7G02G12G14G24G25G29G31
 -29569352.055 7  22369234.534 7 -23026687.81848  22369227.65848       917.305
 -49008296.602 7  21494296.915 7 -38165530.11148  21494290.61748      -498.081
 -30002328.824 5  22509405.375 5 -23316287.54047  22509400.47647      -394.473
 -35802797.512 5  23612785.111 5 -28297739.14847  23612783.64147     -1900.200
 -48517200.078 7  19945138.059 7 -37794120.10249  19945135.15049      1563.994
 -38276421.723 8  20023764.589 8 -29807415.70849  20023759.66649      3109.834
 -20367016.289 7  21953697.813 7 -15384721.77648  21953692.39348      4292.519
 15  1  3  0 21 59.9990000  0  7G02G12G14G24G25G29G31
 -29596614.293 7  22364046.744 7 -23047931.13548  22364038.92648       900.117
 -48993250.063 6  21497160.217 6 -38153805.56149  21497154.47849      -504.976
 -29990289.359 5  22511696.392 5 -23306906.16047  22511692.09247      -408.062
 -35745721.520 5  23623646.367 5 -28253264.34347  23623645.07847     -1904.976
 -48563954.379 8  19936241.007 8 -37830552.02649  19936238.56849      1552.920
 -38369478.355 8  20006056.458 8 -29879927.36149  20006051.34749      3093.838
 -20495627.996 7  21929223.802 7 -15484938.70348  21929217.80148      4281.607
 15  1  3  0 22 29.9990000  0  7G02G12G14G24G25G29G31
 -29623372.813 7  22358954.796 7 -23068781.91348  22358946.94248       883.843
 -48978008.570 7  21500060.579 7 -38141929.08048  21500055.88448      -511.050
 -29977857.125 5  22514062.202 5 -23297218.71647  22514057.22147      -420.596
 -35688511.098 5  23634533.178 5 -28208684.82547  23634531.56647     -1908.975
 -48610387.703 7  19927405.028 7 -37866733.84549  19927402.34649      1542.637
 -38462068.816 8  19988437.065 8 -29952075.76449  19988432.04749      3078.818
 -20623921.367 7  21904810.406 7 -15584907.55148  21904804.41948      4271.338
 15  1  3  0 22 59.9990000  0  7G02G12G14G24G25G29G31
 -29649624.316 7  22353959.324 7 -23089237.64248  22353952.17948       866.724
 -48962569.059 7  21502998.616 7 -38129898.32348  21502993.66548      -517.905
 -29965030.559 6  22516503.003 6 -23287223.99947  22516497.76247      -434.053
 -35631164.156 5  23645446.007 5 -28163998.89447  23645443.81047     -1913.735
 -48656495.895 8  19918630.920 8 -37902662.30949  19918628.10049      1531.538
 -38554188.938 8  19970907.209 8 -30023857.66749  19970901.89049      3062.895
 -20751890.082 7  21880458.818 7 -15684623.43248  21880452.74948      4260.283
 15  1  3  0 23 29.9990000  0  7G02G12G14G24G25G29G31
 -29675375.523 7  22349059.056 7 -23109303.52648  22349051.15048       849.863
 -48946937.273 7  21505973.249 7 -38117717.73748  21505967.58448      -524.385
 -29951818.867 6  22519017.169 6 -23276929.19947  22519011.71547      -447.012
 -35573689.203 5  23656383.208 5 -28119213.25247  23656382.10747     -1917.915
 -48702284.793 8  19909917.571 8 -37938341.97249  19909914.76949      1520.830
 -38645844.387 8  19953465.776 8 -30095277.48649  19953460.77749      3047.310
 -20879537.906 7  21856168.298 7 -15784089.27648  21856162.20948      4249.400
 15  1  3  0 23 59.9990000  0  7G02G12G14G24G25G29G31
 -29700614.453 7  22344256.259 7 -23128970.19948  22344247.93548       832.573
 -48931100.906 7  21508986.826 7 -38105377.70348  21508981.30648      -531.411
 -29938211.977 5  22521606.529 5 -23266326.43947  22521600.47947      -460.430
 -35516075.184 4  23667346.850 4 -28074319.23147  23667345.89447     -1922.910
 -48747741.492 8  19901267.456 8 -37973762.77949  19901264.73149      1509.443
 -38737022.387 8  19936115.183 8 -30166325.26749  19936109.74249      3031.108
 -21006849.836 7  21831941.677 7 -15883293.37648  21831935.56448      4237.979
 15  1  3  0 24 29.9990000  0  7G02G12G14G24G25G29G31
 -29725348.262 7  22339549.598 7 -23148243.29548  22339541.18448       816.123
 -48915067.355 6  21512037.913 6 -38092884.04548  21512032.75748      -537.583
 -29924218.652 5  22524269.421 5 -23255422.58947  22524264.21747      -472.749
 -35458330.098 4  23678335.382 4 -28029323.06746  23678334.23546     -1926.924
 -48792872.082 7  19892679.402 7 -38008929.47749  19892676.24049      1499.014
 -38827728.738 8  19918854.329 8 -30237005.53749  19918848.95949      3015.786
 -21133829.813 7  21807778.208 7 -15982238.81248  21807771.93948      4227.246
 15  1  3  0 24 59.9990000  0  7G02G12G14G24G25G29G31
 -29749585.371 7  22334937.460 7 -23167129.32848  22334930.00548       799.448
 -48898844.777 6  21515124.911 6 -38080243.10648  21515119.69248      -544.097
 -29909849.313 5  22527003.841 5 -23244225.69947  22526999.22547      -485.361
 -35400464.148 4  23689346.918 4 -27984232.74346  23689345.97146     -1931.128
 -48837684.086 8  19884151.974 8 -38043847.92249  19884149.09649      1488.188
 -38917970.875 8  19901681.808 8 -30307324.08349  19901676.71049      3000.117
 -21260483.348 7  21783676.825 7 -16080929.87848  21783670.69348      4216.148
 15  1  3  0 25 29.9990000  0  7G02G12G14G24G25G29G31
 -29773325.227 6  22330419.868 6 -23185627.93248  22330412.82548       783.174
 -48882432.168 6  21518248.099 6 -38067454.07048  21518242.82448      -550.093
 -29895105.238 6  22529809.548 6 -23232736.83447  22529805.11347      -497.515
 -35342477.648 5  23700381.364 5 -27939048.45846  23700379.87646     -1934.697
 -48882175.688 8  19875685.506 8 -38078516.71149  19875683.30949      1477.910
 -39007747.270 8  19884597.933 8 -30377279.70049  19884592.63349      2984.951
 -21386806.629 7  21759638.259 7 -16179363.59748  21759632.15348      4205.401
 15  1  3  0 25 59.9980000  0  7G02G12G14G24G25G29G31
 -29796561.004 7  22325998.249 7 -23203733.73948  22325990.69948       766.250
 -48865822.863 7  21521408.784 7 -38054511.76348  21521402.62348      -556.948
 -29879983.012 5  22532687.194 5 -23220953.30247  22532682.66747      -510.220
 -35284367.262 5  23711439.384 5 -27893767.64047  23711437.99347     -1939.097
 -48926338.289 8  19867281.637 8 -38112929.12649  19867278.95649      1466.753
 -39097047.613 8  19867604.638 8 -30446864.37349  19867599.62249      2968.975
 -21512785.898 7  21735665.164 7 -16277529.25948  21735659.56848      4193.848
 15  1  3  0 26 29.9980000  0  7G02G12G14G24G25G29G31
 -29819305.191 7  22321670.139 7 -23221456.48248  22321662.98448       749.854
 -48849027.086 7  21524604.970 7 -38041424.17648  21524599.51548      -563.008
 -29864494.609 5  22535634.587 5 -23208884.41347  22535629.49847      -522.446
 -35226142.172 5  23722519.239 5 -27848397.44046  23722516.59446     -1942.744
 -48970185.164 7  19858937.848 7 -38147095.53249  19858934.61949      1456.191
 -39185888.141 8  19850698.807 8 -30516090.74849  19850693.92049      2953.579
 -21638437.633 7  21711754.420 7 -16375439.69248  21711748.38648      4182.739
 15  1  3  0 26 59.9980000  0  7G02G12G14G24G25G29G31
 -29841548.879 6  22317437.302 6 -23238789.23248  22317429.24848       733.047
 -48832036.934 6  21527838.091 6 -38028185.11448  21527832.47948      -569.546
 -29848633.898 5  22538652.832 5 -23196525.47147  22538647.72747      -534.844
 -35167797.168 5  23733621.949 5 -27802933.85046  23733619.60346     -1946.899
 -49013705.563 8  19850656.195 8 -38181007.53549  19850653.60649      1445.283
 -39274256.625 8  19833882.821 8 -30584949.30549  19833878.18449      2937.768
 -21763746.828 7  21687908.896 7 -16473083.21948  21687903.00148      4171.225
 15  1  3  0 27 29.9980000  0  7G02G12G14G24G25G29G31
 -29863299.875 7  22313298.259 7 -23255738.01748  22313290.69248       716.421
 -48814859.441 6  21531106.866 6 -38014800.06848  21531101.78248      -575.996
 -29832410.941 5  22541739.988 5 -23183884.21647  22541734.16547      -547.109
 -35109340.742 5  23744745.869 5 -27757383.41946  23744743.90646     -1950.732
 -49056906.152 7  19842435.409 7 -38214670.33349  19842433.15549      1434.341
 -39362160.270 8  19817155.305 8 -30653445.64249  19817150.15249      2922.002
 -21888717.777 7  21664127.763 7 -16570463.17148  21664121.69548      4159.683
 15  1  3  0 27 59.9980000  0  7G02G12G14G24G25G29G31
 -29884549.605 7  22309254.543 7 -23272296.26648  22309246.91848       699.810
 -48797485.813 7  21534412.985 7 -38001262.20648  21534407.69248      -582.539
 -29815819.309 5  22544897.287 5 -23170955.71847  22544893.19347      -559.336
 -35050765.699 5  23755892.381 5 -27711740.50046  23755889.70446     -1954.673
 -49099777.344 8  19834277.308 8 -38248076.45949  19834275.14449      1423.394
 -39449588.941 8  19800518.178 8 -30721571.86449  19800513.13749      2906.269
 -22013338.809 7  21640413.199 7 -16667570.46748  21640407.48948      4148.047
 15  1  3  0 28 29.9980000  0  7G02G12G14G24G25G29G31
 -29905292.262 7  22305307.376 7 -23288459.34348  22305299.68948       683.311
 -48779909.566 7  21537757.674 7 -37987566.45548  21537752.48948      -588.784
 -29798854.535 4  22548125.561 4 -23157736.41047  22548122.06347      -571.226
 -34992067.125 5  23767062.400 5 -27666001.43346  23767059.84746     -1958.296
 -49142312.031 8  19826183.246 8 -38281220.37649  19826180.43649      1412.515
 -39536535.883 8  19783972.727 8 -30789322.72649  19783967.18149      2890.542
 -22137600.680 7  21616766.953 7 -16764397.90648  21616760.65748      4136.392
 15  1  3  0 28 59.9980000  0  7G02G12G14G24G25G29G31
 -29925540.703 6  22301454.138 6 -23304237.35848  22301447.43448       666.440
 -48762143.523 7  21541138.447 7 -37973722.81948  21541132.66848      -595.449
 -29781531.535 4  22551422.015 4 -23144237.99247  22551417.48847      -583.550
 -34933259.223 4  23778253.220 4 -27620177.11846  23778251.49146     -1962.285
 -49184522.141 8  19818150.941 8 -38314111.35949  19818148.25249      1401.377
 -39623012.984 8  19767516.695 8 -30856707.47449  19767511.58649      2874.507
 -22261513.262 7  21593187.166 7 -16860953.15648  21593181.16448      4124.370
 15  1  3  0 29 29.9980000  0  7G02G12G14G24G25G29G31
 -29945290.199 7  22297695.901 7 -23319626.58348  22297688.19548       650.244
 -48744182.051 7  21544556.415 7 -37959726.88948  21544550.98848      -601.772
 -29763847.637 4  22554787.135 4 -23130458.36247  22554782.75247      -595.156
 -34874338.055 4  23789465.580 4 -27574264.47646  23789463.59946     -1965.679
 -49226401.695 8  19810181.528 8 -38346744.78849  19810178.53849      1390.742
 -39709014.504 8  19751151.166 8 -30923721.64449  19751146.16149      2859.014
 -22385068.426 7  21569675.422 7 -16957229.90148  21569669.37248      4112.734
 15  1  3  0 29 59.9980000  0  7G02G12G14G24G25G29G31
 -29964540.414 7  22294032.754 7 -23334626.73948  22294025.72648       633.286
 -48726024.457 7  21548011.721 7 -37945578.14148  21548006.35448      -608.618
 -29745804.324 4  22558220.644 4 -23116398.67247  22558215.71947      -607.568
 -34815304.219 4  23800699.325 4 -27528264.10846  23800697.98646     -1969.639
 -49267949.293 8  19802275.281 8 -38379119.54149  19802271.98649      1379.170
 -39794539.160 8  19734876.386 8 -30990364.21649  19734871.20249      2842.729
 -22508262.457 7  21546232.408 7 -17053225.24648  21546226.03648      4100.273
 15  1  3  0 30 29.9980000  0  7G02G12G14G24G25G29G31
 -29983295.133 6  22290463.795 6 -23349240.80648  22290456.51348       617.012
 -48707673.797 7  21551503.796 7 -37931278.93748  21551498.48048      -614.761
 -29727407.203 5  22561721.501 5 -23102063.27347  22561716.48047      -619.038
 -34756163.016 3  23811953.465 3 -27482180.03946  23811951.56546     -1972.944
 -49309167.441 8  19794431.727 8 -38411237.56949  19794428.88649      1368.560
 -39879589.449 8  19718691.852 8 -31056637.16649  19718687.14349      2827.188
 -22631096.090 7  21522857.955 7 -17148939.76848  21522851.86948      4088.545
 15  1  3  0 30 59.9980000  0  7G02G12G14G24G25G29G31
 -30001552.098 7  22286989.641 7 -23363467.02948  22286981.40248       600.322
 -48689127.484 6  21555033.082 6 -37916827.29548  21555027.90448      -621.406
 -29708655.918 4  22565289.803 4 -23087451.90146  22565284.46346      -630.845
 -34696912.730 3  23823228.378 3 -27436011.00746  23823226.83546     -1976.904
 -49350052.840 8  19786651.489 8 -38443096.33649  19786648.59049      1357.295
 -39964162.180 8  19702598.175 8 -31122537.99849  19702593.34549      2811.182
 -22753563.828 7  21499553.103 7 -17244369.19148  21499547.18248      4076.196
 15  1  3  0 31 29.9980000  0  7G02G12G14G24G25G29G31
 -30019315.156 6  22283609.499 6 -23377308.36048  22283601.75748       583.477
 -48670388.949 6  21558598.885 6 -37902225.87148  21558594.08448      -628.101
 -29689556.027 4  22568924.383 4 -23072568.88247  22568918.97647      -642.783
 -34637558.832 3  23834523.061 3 -27389761.26645  23834520.66145     -1980.479
 -49390608.238 8  19778934.034 8 -38474697.94449  19778931.69549      1346.011
 -40048260.215 8  19686594.822 8 -31188068.93349  19686589.29949      2795.005
 -22875666.355 7  21476317.733 7 -17339514.01748  21476311.83148      4063.638
 15  1  3  0 31 59.9980000  0  7G02G12G14G24G25G29G31
 -30036576.285 6  22280324.745 6 -23390758.57348  22280317.21648       567.173
 -48651449.566 7  21562202.882 7 -37887467.94048  21562197.74448      -634.541
 -29670101.391 4  22572626.509 4 -23057409.46446  22572621.51146      -654.307
 -34578093.750 3  23845838.898 3 -27343424.84445  23845836.96245     -1983.823
 -49430824.078 8  19771281.202 8 -38506034.98149  19771278.50649      1334.961
 -40131874.527 8  19670683.536 8 -31253222.93049  19670678.43849      2779.194
 -22997392.023 7  21453154.080 7 -17434365.17748  21453147.71248      4051.338
 15  1  3  0 32 29.9980000  0  7G02G12G14G24G25G29G31
 -30053336.758 6  22277135.317 6 -23403818.67248  22277127.54348       550.483
 -48632309.500 6  21565845.065 6 -37872553.63648  21565840.62348      -641.245
 -29650295.289 5  22576395.454 5 -23041976.15547  22576390.62147      -665.918
 -34518519.629 2  23857175.486 2 -27297003.48445  23857172.73545     -1987.627
 -49470700.695 8  19763692.928 8 -38537107.65649  19763690.49349      1323.662
 -40215005.363 8  19654864.250 8 -31318000.19449  19654859.18849      2763.052
 -23118739.199 7  21430062.465 7 -17528921.41748  21430056.53948      4038.677
 15  1  3  0 32 59.9980000  0  7G02G12G14G24G25G29G31
 -30069597.738 6  22274040.929 6 -23416489.57948  22274033.96248       534.126
 -48612969.754 7  21569525.320 7 -37857483.71848  21569520.09548      -647.661
 -29630140.758 4  22580230.752 4 -23026271.35047  22580225.85447      -677.163
 -34458839.270 2  23868532.295 2 -27250499.26245  23868530.33945     -1990.684
 -49510238.008 8  19756169.227 8 -38567915.96449  19756166.68349      1312.612
 -40297652.617 8  19639136.983 8 -31382400.65349  19639131.92949      2747.222
 -23239705.473 7  21407043.345 7 -17623180.84448  21407037.13348      4026.196
 15  1  3  0 33 29.9980000  0  7G02G12G14G24G25G29G31
 -30085375.016 6  22271038.590 6 -23428783.57248  22271031.20848       517.676
 -48593445.176 6  21573240.762 6 -37842269.77948  21573235.60548      -654.063
 -29609654.961 5  22584129.128 5 -23010308.42647  22584124.52247      -688.467
 -34399068.863 3  23879906.250 3 -27203924.95745  23879903.32045     -1993.892
 -49549450.375 8  19748707.384 8 -38598471.06149  19748704.19449      1301.519
 -40379831.328 8  19623498.898 8 -31446436.00049  19623493.77149      2731.318
 -23360302.992 7  21384094.419 7 -17717152.92548  21384088.09148      4013.623
 15  1  3  0 33 59.9980000  0  7G02G12G14G24G25G29G31
 -30100660.973 6  22268129.797 6 -23440694.68648  22268121.66148       501.494
 -48573727.980 6  21576992.837 6 -37826905.76648  21576987.52448      -660.366
 -29588832.281 4  22588091.591 4 -22994082.96246  22588087.19046      -699.663
 -34339201.672 3  23891298.679 3 -27157275.21945  23891296.57145     -1997.129
 -49588328.922 8  19741309.063 8 -38628766.03449  19741306.02549      1290.483
 -40461532.469 8  19607951.718 8 -31510099.23049  19607946.37849      2715.498
 -23480521.082 7  21361217.701 7 -17810829.35748  21361211.02048      4000.991
 15  1  3  0 34 29.9980000  0  7G02G12G14G24G25G29G31
 -30115461.453 7  22265313.354 7 -23452227.54848  22265305.76948       484.619
 -48553823.242 6  21580780.599 6 -37811395.62648  21580775.18948      -667.178
 -29567680.477 4  22592116.622 4 -22977601.06646  22592111.66346      -711.226
 -34279244.578 2  23902708.169 2 -27110555.41445  23902707.19245     -2000.894
 -49626878.199 8  19733973.408 8 -38658804.44349  19733970.56349      1278.872
 -40542760.719 8  19592494.508 8 -31573393.96149  19592489.21649      2699.082
 -23600361.957 7  21338412.756 7 -17904211.85848  21338406.30448      3987.764
 15  1  3  0 34 59.9980000  0  7G02G12G14G24G25G29G31
 -30129771.434 7  22262590.358 7 -23463378.16748  22262582.06448       469.014
 -48533725.012 6  21584605.185 6 -37795734.68248  21584599.99848      -672.925
 -29546196.422 5  22596204.885 5 -22960860.26446  22596199.73246      -721.372
 -34219193.727 2  23914135.519 2 -27063762.55945  23914132.55245     -2002.969
 -49665092.109 8  19726701.574 8 -38688581.52649  19726699.07449      1268.442
 -40623510.664 8  19577128.302 8 -31636315.99249  19577122.66549      2683.936
 -23719817.852 7  21315681.046 7 -17997294.37848  21315675.07648      3975.606
 15  1  3  0 35 29.9980000  0  7G02G12G14G24G25G29G31
 -30143593.867 7  22259959.974 7 -23474148.88548  22259951.93948       452.446
 -48513435.355 6  21588466.213 6 -37779924.59248  21588461.19548      -679.648
 -29524384.504 4  22600355.546 4 -22943863.97647  22600349.60547      -732.705
 -34159052.770 2  23925580.062 2 -27016899.50444  23925576.45444     -2006.118
 -49702972.043 8  19719493.273 8 -38718098.36049  19719490.61349      1256.963
 -40703784.023 8  19561852.781 8 -31698866.65449  19561847.58549      2667.607
 -23838888.090 7  21293022.696 7 -18090076.37148  21293016.69348      3962.314
 15  1  3  0 35 59.9980000  0  7G02G12G14G24G25G29G31
 -30156922.590 7  22257423.593 7 -23484534.92848  22257416.07648       436.123
 -48492947.547 6  21592364.937 6 -37763960.07648  21592359.27148      -686.113
 -29502240.441 4  22604569.455 4 -22926608.89346  22604564.20846      -743.608
 -34098816.320 2  23937042.686 2 -26969962.01243  23937040.49243     -2009.214
 -49740510.492 8  19712349.951 8 -38747349.10749  19712347.19249      1245.625
 -40783572.859 8  19546669.456 8 -31761039.76249  19546664.40149      2651.611
 -23957562.809 7  21270439.613 7 -18182550.17648  21270433.37848      3949.282
 15  1  3  0 36 29.9980000  0  8G02G12G14G21G24G25G29G31
 -30169766.035 7  22254979.604 7 -23494542.81148  22254972.68348       419.902
 -48472268.902 6  21596299.963 6 -37747846.85848  21596294.55448      -692.549
 -29479774.582 5  22608844.618 5 -22909103.04546  22608839.26646      -754.326
   -107699.605 3  24526950.324 3                                      5049.604
 -34038493.484 2  23948521.715 2 -26922957.28144  23948519.06844     -2012.222
 -49777714.613 8  19705270.227 8 -38776339.33649  19705267.53749      1234.463
 -40862884.879 8  19531576.864 8 -31822841.32949  19531571.72449      2635.664
 -24075846.777 7  21247930.916 7 -18274719.49048  21247925.08248      3936.152
 15  1  3  0 36 59.9980000  0  8G02G12G14G21G24G25G29G31
 -30182111.559 6  22252630.266 6 -23504162.70048  22252621.62148       403.862
 -48451386.836 6  21600273.688 6 -37731575.12848  21600268.35048      -698.887
 -29456975.961 4  22613183.088 4 -22891337.95046  22613178.36746      -764.854
   -259193.445 3  24498122.004 3   -181508.32044  24498116.48944      5050.503
 -33978072.789 2  23960019.418 2 -26875876.24644  23960017.43544     -2015.059
 -49814570.566 8  19698256.755 8 -38805058.26849  19698254.20049      1223.335
 -40941707.086 8  19516577.472 8 -31884261.22249  19516572.10649      2619.849
 -24193724.707 7  21225499.506 7 -18366572.41748  21225493.83948      3922.979
 15  1  3  0 37 29.9980000  0  8G02G12G14G21G24G25G29G31
 -30193978.262 7  22250372.080 7 -23513409.46748  22250364.15348       387.656
 -48430319.203 7  21604282.733 7 -37715158.80948  21604277.79748      -705.288
 -29433865.191 5  22617580.960 5 -22873329.57746  22617576.69546      -775.420
   -410714.207 3  24469288.593 3   -299576.22344  24469284.17744      5051.152
 -33917573.926 2  23971531.921 2 -26828734.25843  23971529.13443     -2017.964
 -49851095.813 8  19691306.230 8 -38833519.50749  19691303.26049      1212.017
 -41020056.414 8  19501668.060 8 -31945312.64549  19501662.78849      2603.774
 -24311211.766 7  21203142.477 7 -18458120.75648  21203136.36848      3909.790
 15  1  3  0 37 59.9980000  0  8G02G12G14G21G24G25G29G31
 -30205364.016 6  22248205.438 6 -23522281.48148  22248198.67548       371.543
 -48409063.359 7  21608327.618 7 -37698595.84448  21608322.40348      -711.685
 -29410442.184 4  22622038.221 4 -22855077.89946  22622032.56646      -785.840
   -562256.492 3  24440450.941 3   -417660.87145  24440446.11345      5051.836
 -33856996.086 2  23983059.526 2 -26781530.78143  23983056.93643     -2020.357
 -49887286.988 8  19684419.284 8 -38861720.43549  19684416.64649      1200.830
 -41097930.121 8  19486849.162 8 -32005993.44949  19486843.92649      2587.837
 -24428302.414 7  21180860.880 7 -18549360.22348  21180854.67048      3896.392
 15  1  3  0 38 29.9980000  0  8G02G12G14G21G24G25G29G31
 -30216270.637 6  22246129.982 6 -23530780.17448  22246122.43148       355.698
 -48387620.227 7  21612408.152 7 -37681886.94848  21612402.64348      -717.764
 -29386710.414 5  22626554.262 5 -22836585.65246  22626549.68946      -795.972
   -713818.609 3  24411609.302 3   -535760.98043  24411604.20543      5052.437
 -33796341.434 2  23994601.796 2                                     -2022.847
 -49923144.570 8  19677595.807 8 -38889661.41049  19677593.34849      1189.795
 -41175329.227 8  19472120.601 8 -32066304.44249  19472115.45149      2572.207
 -24544995.262 7  21158654.987 7 -18640289.71548  21158648.99048      3883.277
 15  1  3  0 38 59.9980000  0  8G02G12G14G21G24G25G29G31
 -30226693.832 6  22244146.586 6 -23538902.11848  22244138.14448       339.438
 -48365984.688 6  21616525.286 6 -37665028.11248  21616519.71448      -724.429
 -29362667.457 4  22631129.522 4 -22817850.87146  22631124.67646      -806.631
   -865392.973 1  24382765.374 1   -653870.69944  24382759.34844      5052.803
 -33735606.410 1  24006159.307 1                                     -2025.640
 -49958662.793 8  19670836.934 8 -38917337.95749  19670834.33549      1178.306
 -41252248.371 8  19457483.399 8 -32126241.44149  19457477.62949      2556.021
 -24661282.477 7  21136526.279 7 -18730903.12548  21136520.16848      3869.473
 15  1  3  0 39 29.9980000  0  7G02G12G14G21G25G29G31
 -30236649.492 6  22242252.138 6 -23546659.77448  22242245.10948       323.857
 -48344171.703 7  21620676.193 7 -37648030.99948  21620671.24848      -730.278
 -29338330.637 4  22635760.673 4 -22798887.13446  22635755.66046      -816.314
  -1016991.621 2  24353917.041 2   -771999.32444  24353910.20444      5053.432
 -49993855.926 8  19664139.942 8 -38944761.18149  19664136.96249      1167.500
 -41328701.992 8  19442934.784 8 -32185815.67749  19442929.42849      2540.532
 -24777176.207 7  21114472.413 7 -18821209.91648  21114465.86648      3856.406
 15  1  3  0 39 59.9980000  0  8G02G12G14G21G24G25G29G31
 -30246136.348 6  22240446.882 6 -23554052.15048  22240439.15548       308.125
 -48322179.207 6  21624861.268 6 -37630894.02048  21624855.91948      -736.323
 -29313700.383 4  22640447.669 4 -22779694.73946  22640442.54846      -826.118
  -1168610.305 3  24325064.890 3   -890143.49645  24325058.06045      5053.984
 -33613944.543 1  24029309.410 1                                     -2030.083
 -50028721.461 8  19657505.251 8 -38971929.12949  19657503.00149      1156.450
 -41404687.656 8  19428475.188 8 -32245025.28449  19428469.70749      2524.741
 -24892672.004 7  21092494.269 7 -18911206.63348  21092488.06648      3842.939
 15  1  3  0 40 29.9980000  0  8G02G12G14G21G24G25G29G31
 -30255145.094 6  22238732.633 6 -23561071.92848  22238724.01248       292.979
 -48299997.363 7  21629082.379 7 -37613609.50048  21629076.05348      -741.973
 -29288769.477 5  22645191.914 5 -22760268.10046  22645186.68146      -835.322
  -1320236.051 3  24296211.333 3  -1008293.29745  24296204.04945      5054.888
 -33553008.930 1  24040905.155 1                                     -2031.919
 -50063248.879 8  19650934.883 8 -38998833.61749  19650932.75849      1145.864
 -41480195.816 8  19414106.453 8 -32303862.80549  19414101.22449      2509.556
 -25007757.102 7  21070594.272 7 -19000883.32748  21070587.55648      3829.971
 15  1  3  0 40 59.9980000  0  8G02G12G14G21G24G25G29G31
 -30263693.730 6  22237105.877 6 -23567733.19948  22237097.73448       277.290
 -48277642.918 7  21633336.329 7 -37596190.49048  21633330.74248      -748.081
 -29263556.918 5  22649989.743 5 -22740621.92946  22649984.94446      -845.088
  -1471883.211 3  24267353.696 3  -1126459.72345  24267346.19745      5055.200
 -33492019.500 1  24052511.199 1                                     -2033.926
 -50097454.219 8  19644425.804 8 -39025487.13149  19644422.86449      1134.849
 -41555242.281 8  19399825.596 8 -32362340.56849  19399820.12149      2493.813
 -25122445.461 7  21048769.809 7 -19090250.88948  21048763.25348      3816.265
 15  1  3  0 41 29.9970000  0  8G02G12G14G21G24G25G29G31
 -30271782.723 6  22235566.556 6 -23574036.32748  22235559.23748       261.943
 -48255116.039 7  21637623.071 7 -37578637.09148  21637618.18748      -753.789
 -29238066.371 5  22654840.462 5 -22720759.24146  22654834.62846      -854.346
  -1623543.352 3  24238493.747 3  -1244636.32845  24238485.82345      5055.835
 -33430979.113 1  24064126.926 1                                     -2035.552
 -50131335.703 8  19637978.352 8 -39051888.29749  19637975.84549      1124.072
 -41629824.664 8  19385633.057 8 -32420456.70349  19385627.80349      2478.472
 -25236730.902 7  21027022.024 7 -19179304.47948  21027015.72948      3802.915
 15  1  3  0 41 59.9970000  0  8G02G12G14G21G24G25G29G31
 -30279400.199 6  22234116.996 6 -23579972.02548  22234109.55348       246.196
 -48232402.543 7  21641945.312 7 -37560938.29048  21641939.86648      -759.858
 -29212285.430 5  22659746.415 5 -22700670.21646  22659741.59246      -863.916
  -1775210.918 2  24209632.413 2  -1362818.66445  24209624.84445      5055.815
 -33369872.281 1  24075755.954 1                                     -2037.700
 -50164881.887 8  19631594.727 8 -39078028.19049  19631591.79249      1112.876
 -41703934.688 8  19371530.388 8 -32478204.75949  19371525.32649      2462.690
 -25350605.227 7  21005352.454 7 -19268037.71648  21005346.09648      3789.087
 15  1  3  0 42 29.9970000  0  8G02G12G14G21G24G25G29G31
 -30286559.313 6  22232754.605 6 -23585550.55647  22232747.39047       230.684
 -48209515.563 7  21646300.548 7 -37543104.29848  21646295.36448      -766.099
 -29186229.758 5  22664704.646 5 -22680367.08646  22664700.15246      -873.413
  -1926890.625 2  24180768.717 2  -1481010.46545  24180762.82545      5055.689
 -33308715.129 1  24087394.230 1                                     -2039.546
 -50198103.281 8  19625272.932 8 -39103915.00349  19625269.92949      1101.641
 -41777581.996 8  19357515.757 8 -32535592.26749  19357510.59749      2446.851
 -25464074.305 7  20983760.002 7 -19356455.17148  20983754.38748      3775.200
 15  1  3  0 42 59.9970000  0  7G02G12G14G21G25G29G31
 -30293257.074 6  22231480.102 6 -23590769.59048  22231472.41448       215.181
 -48186450.793 7  21650689.660 7 -37525131.78548  21650684.08348      -772.188
 -29159898.105 4  22669715.380 4 -22659848.93846  22669710.92946      -882.744
  -2078575.773 1  24151903.886 1  -1599206.57445  24151897.03545      5055.894
 -50230995.582 8  19619013.763 8 -39129545.36349  19619010.89149      1090.576
 -41850762.531 8  19343589.952 8 -32592616.06249  19343584.70649      2431.123
 -25577131.441 7  20962245.967 7 -19444551.64048  20962240.26148      3761.250
 15  1  3  0 43 29.9970000  0  8G02G12G14G21G24G25G29G31
 -30299499.004 6  22230292.292 6 -23595633.43948  22230285.15448       200.200
 -48163213.309 7  21655111.691 7 -37507024.69448  21655106.46448      -777.739
 -29133297.895 5  22674777.195 5 -22639121.53846  22674773.05146      -891.318
  -2230268.426 3  24123037.774 3  -1717408.56046  24123030.64246      5056.489
 -33186249.633 1  24110698.043 1                                     -2043.213
 -50263562.906 8  19612816.432 8 -39154922.50349  19612813.54649      1079.902
 -41923481.109 8  19329752.087 8 -32649279.88549  19329746.86549      2416.035
 -25689779.238 7  20940809.829 7 -19532329.13748  20940803.86148      3747.783
 15  1  3  0 43 59.9970000  0  8G02G12G14G21G24G25G29G31
 -30305282.523 6  22229191.749 6 -23600140.07648  22229183.25348       185.063
 -48139799.469 7  21659567.284 7 -37488780.14048  21659561.53848      -783.584
 -29106428.207 5  22679890.353 5 -22618184.14546  22679885.69546      -900.439
  -2381962.531 4  24094171.513 4  -1835611.63645  24094164.77045      5056.353
 -33124945.355 1  24122364.266 1                                     -2044.375
 -50295800.945 8  19606681.746 8 -39180043.06449  19606678.87249      1068.960
 -41995733.531 8  19316002.929 8 -32705580.46449  19315997.69849      2400.459
 -25802011.258 7  20919452.788 7 -19619782.67348  20919446.57748      3733.906
 15  1  3  0 44 29.9970000  0  8G02G12G14G21G24G25G29G31
 -30310603.566 6  22228179.218 6 -23604286.32848  22228171.29748       170.005
 -48116204.195 7  21664057.380 7 -37470394.22648  21664050.92048      -789.272
 -29079286.180 4  22685055.295 4 -22597034.53446  22685049.95846      -909.053
  -2533649.781 4  24065306.445 4  -1953809.32746  24065301.12746      5056.138
 -33063589.398 1  24134040.400 1                                     -2045.986
 -50327704.035 8  19600610.795 8 -39204902.61949  19600608.03049      1058.076
 -42067514.680 8  19302343.425 8 -32761513.82349  19302338.06749      2385.049
 -25913819.602 7  20898176.355 7 -19706906.04748  20898170.19448      3720.068
 15  1  3  0 44 59.9970000  0  8G02G12G14G21G24G25G29G31
 -30315480.500 6  22227251.116 6 -23608086.54347  22227243.76147       154.546
 -48092444.473 6  21668578.718 6 -37451880.17948  21668573.26648      -795.366
 -29051891.496 5  22690268.352 5 -22575688.07246  22690263.74946      -917.935
  -2685345.004 4  24036439.841 4  -2072013.31646  24036433.94946      5056.074
 -33002200.355 1  24145722.309 1                                     -2047.559
 -50359289.016 8  19594600.371 8 -39229514.28849  19594597.32049      1046.851
 -42138841.598 8  19288770.340 8 -32817093.22949  19288765.40849      2369.336
 -26025218.980 7  20876977.720 7 -19793710.75049  20876972.07049      3705.801
 15  1  3  0 45 29.9970000  0  8G02G12G14G21G24G25G29G31
 -30319896.965 6  22226410.659 6 -23611527.96147  22226403.06347       139.976
 -48068503.504 7  21673134.518 7 -37433224.89748  21673129.11548      -800.674
 -29024229.793 3  22695532.206 3 -22554133.52246  22695527.35946      -925.981
  -2837028.324 4  24007575.564 4  -2190207.98646  24007569.07846      5056.094
 -32940762.855 1  24157413.305 1                                     -2048.325
 -50390537.988 8  19588653.875 8 -39253864.14549  19588650.90449      1036.431
 -42209697.363 8  19275286.911 8 -32872305.50949  19275281.71349      2354.399
 -26136189.746 7  20855860.682 7 -19880181.47049  20855855.24249      3692.290
 15  1  3  0 45 59.9970000  0  8G02G12G14G21G24G25G29G31
 -30323865.848 6  22225655.382 6 -23614620.58747  22225647.26147       124.380
 -48044392.719 7  21677722.645 7 -37414437.29848  21677718.03448      -806.982
