     2.11           OBSERVATION DATA    G (GPS)             RINEX VERSION / TYPE
teqc  2013Mar15                         20150104 00:41:37UTCPGM / RUN BY / DATE
Automatic           ASI - Telespazio                        OBSERVER / AGENCY
22774               TRIMBLE 4000SSI     Nav 7.29 Sig 3.07   REC # / TYPE / VERS
27655               TRM29659.00     NONE                    ANT # / TYPE
Linux2.4.20-8|i386|gcc|Win32-MinGW32|=                      COMMENT
     2              OBSERVATION DATA                        COMMENT
DAT2RIN 2.51 TRS    ASI - Telespazio    03JAN15 23:59:47 GMTCOMMENT
----------------------------------------------------------- COMMENT
Offset from BOTTOM OF ANTENNA to PHASE CENTER is 110.0 mm   COMMENT
----------------------------------------------------------- COMMENT
MEDI                                                        MARKER NAME
12711M003                                                   MARKER NUMBER
  4461405.3327   919593.3197  4449500.2118                  APPROX POSITION XYZ
        0.0000        0.0000        0.0000                  ANTENNA: DELTA H/E/N
*** Above antenna height is from mark to BOTTOM OF ANTENNA. COMMENT
     1     1                                                WAVELENGTH FACT L1/2
     5    L1    C1    L2    P2    D1                        # / TYPES OF OBSERV
    30.0000                                                 INTERVAL
  2015     1     3     0     0    0.0000000     GPS         TIME OF FIRST OBS
                                                            END OF HEADER
 15  1  3  0  0  0.0000000  0  8G02G06G12G14G24G25G29G31
 -14255380.329 6  22731960.369 6  -1155353.23046  22731959.47346      -102.841
  -2660613.722 4  24564577.056 4   2586266.31745  24564580.07245     -2328.373
 -20420029.971 8  21493730.268 8 -15287156.86547  21493730.82747     -1820.577
 -14468535.953 6  22887405.881 6 -10408778.51046  22887406.54646     -1501.680
  -8601407.107 5  23303481.061 5  -6549659.04546  23303485.03446     -3382.767
 -25083663.820 8  20623706.596 8 -19027982.62647  20623710.20447       441.339
 -21607278.079 7  21166967.726 7 -16485669.40247  21166969.16047      2078.114
  -9892711.133 6  23412726.879 6  -7395800.88646  23412726.84046      2977.927
 15  1  3  0  0 30.0000000  0  8G02G06G12G14G24G25G29G31
 -14252034.307 6  22732597.077 6  -1152745.93346  22732596.65546      -120.213
  -2590543.787 3  24577910.905 3   2640866.24645  24577915.11745     -2342.924
 -20365294.767 7  21504146.053 7 -15244506.07147  21504146.74947     -1828.439
 -14423240.717 6  22896025.272 6 -10373483.52646  22896026.29146     -1517.988
  -8499810.725 5  23322814.213 5  -6470493.04546  23322817.83146     -3390.302
 -25096746.542 8  20621217.039 8 -19038176.95847  20621220.63047       430.836
 -21669408.280 7  21155144.719 7 -16534082.53747  21155146.00247      2063.900
  -9981936.904 6  23395747.773 6  -7465327.44446  23395748.30346      2970.432
 15  1  3  0  1  0.0000000  0  8G02G06G12G14G24G25G29G31
 -14248166.974 6  22733332.985 6  -1149732.42146  22733332.03746      -137.609
  -2520038.805 3  24591327.459 3   2695805.25545  24591331.25445     -2357.402
 -20310324.373 7  21514606.593 7 -15201672.01847  21514607.10047     -1836.257
 -14377457.743 6  22904737.459 6 -10337808.49546  22904737.84246     -1534.204
  -8397988.762 5  23342190.269 5  -6391151.28546  23342193.83146     -3397.814
 -25109513.854 8  20618787.510 8 -19048125.51247  20618791.07947       420.313
 -21731111.770 7  21143402.931 7 -16582163.16447  21143404.16347      2049.657
 -10070936.861 6  23378811.653 6  -7534678.05746  23378811.79046      2962.875
 15  1  3  0  1 30.0000000  0  8G02G06G12G14G24G25G29G31
 -14243778.080 6  22734168.142 6  -1146312.49346  22734167.77546      -154.984
  -2449101.139 3  24604826.415 3   2751081.26045  24604833.70645     -2371.773
 -20255118.733 8  21525111.894 8 -15158654.65347  21525112.54047     -1844.102
 -14331188.896 6  22913542.169 6 -10301754.86746  22913543.45746     -1550.385
  -8295942.900 5  23361608.961 5  -6311635.06346  23361612.32046     -3405.270
 -25121965.438 8  20616418.056 8 -19057828.04847  20616421.69147       409.787
 -21792387.332 7  21131742.582 7 -16629910.34747  21131744.01847      2035.376
 -10159708.316 6  23361918.999 6  -7603850.62146  23361920.06346      2955.211
 15  1  3  0  2  0.0000000  0  8G02G06G12G14G24G25G29G31
 -14238867.506 6  22735102.567 6  -1142486.05846  22735101.68246      -172.387
  -2377732.978 3  24618407.347 3   2806692.83845  24618411.57245     -2386.113
 -20199677.880 8  21535661.961 8 -15115453.99747  21535662.65447     -1851.944
 -14284436.234 6  22922438.895 6 -10265324.24545  22922440.97345     -1566.463
  -8193675.070 5  23381069.865 5  -6231945.85046  23381074.32046     -3412.624
 -25134100.902 8  20614108.757 8 -19067284.25447  20614112.56747       399.241
 -21853234.220 7  21120163.806 7 -16677323.49047  21120164.86347      2021.068
 -10248248.916 6  23345070.267 6  -7672843.28546  23345070.04246      2947.490
 15  1  3  0  2 30.0000000  0  8G02G06G12G14G24G25G29G31
 -14233435.354 6  22736136.258 6  -1138253.21546  22736135.46146      -189.752
  -2305936.677 3  24632069.692 3   2862638.02445  24632073.91045     -2400.303
 -20144002.657 7  21546256.638 7 -15072070.72847  21546257.05247     -1859.732
 -14237202.142 6  22931427.266 6 -10228518.46945  22931429.16645     -1582.475
  -8091186.893 5  23400572.740 5  -6152084.95245  23400577.05345     -3419.891
 -25145919.886 8  20611859.677 8 -19076493.84747  20611863.31447       388.686
 -21913651.412 7  21108666.796 7 -16724401.80747  21108667.91447      2006.734
 -10336556.592 6  23328265.861 6  -7741654.44846  23328266.57046      2939.677
 15  1  3  0  3  0.0000000  0  8G02G06G12G14G24G25G29G31
 -14227481.548 6  22737269.207 6  -1133613.87246  22737268.24346      -207.160
  -2233714.429 3  24645813.210 3   2918915.12645  24645818.87945     -2414.471
 -20088093.931 7  21556895.732 7 -15028505.50347  21556896.29047     -1867.520
 -14189488.744 6  22940506.839 6 -10191339.21746  22940508.59546     -1598.395
  -7988480.873 5  23420117.054 5  -6072054.31346  23420120.79646     -3427.176
 -25157422.066 8  20609670.879 8 -19085456.58347  20609674.60647       378.125
 -21973638.298 7  21097251.653 7 -16771144.83247  21097253.04147      1992.376
 -10424629.037 6  23311506.230 6  -7810282.30646  23311506.78846      2931.799
 15  1  3  0  3 30.0000000  0  8G02G06G12G14G24G25G29G31
 -14221006.018 6  22738501.459 6  -1128567.99646  22738500.83446      -224.549
  -2161068.557 3  24659637.224 3   2975522.23445  24659639.20745     -2428.573
 -20031952.469 7  21567579.135 7 -14984758.93747  21567579.63347     -1875.262
 -14141298.069 6  22949677.214 6 -10153788.07245  22949678.22845     -1614.288
  -7885558.695 5  23439702.477 5  -5991855.23445  23439707.39245     -3434.308
 -25168607.059 8  20607542.442 8 -19094172.16947  20607546.22747       367.547
 -22033193.961 7  21085918.572 7 -16817551.82647  21085919.58847      1977.991
 -10512463.773 6  23294791.846 6  -7878724.95446  23294792.95146      2923.838
 15  1  3  0  4  0.0000000  0  8G02G06G12G14G24G25G29G31
 -14214008.720 6  22739832.989 6  -1123115.53846  22739832.26746      -241.943
  -2088001.408 3  24673541.468 3   3032457.64545  24673547.76945     -2442.531
 -19975577.901 7  21578306.879 7 -14940830.70547  21578307.41847     -1883.025
 -14092632.476 5  22958937.945 5 -10115866.81945  22958938.36145     -1630.069
  -7782422.340 5  23459328.703 5  -5911489.23046  23459332.41546     -3441.430
 -25179474.533 8  20605474.433 8 -19102640.32847  20605478.18247       356.950
 -22092317.571 7  21074667.720 7 -16863622.16647  21074668.87447      1963.587
 -10600058.920 6  23278123.035 6  -7946980.91246  23278123.77546      2915.824
 15  1  3  0  4 30.0000000  0  8G02G06G12G14G24G25G29G31
 -14206489.956 6  22741263.773 6  -1117256.74846  22741263.79846      -259.310
  -2014515.339 2  24687525.440 2   3089719.57745  24687527.05045     -2456.444
 -19918971.037 7  21589078.816 7 -14896721.48347  21589079.03947     -1890.749
 -14043494.232 5  22968288.668 5 -10077577.30546  22968289.95846     -1645.810
  -7679073.582 5  23478995.346 5  -5830957.75346  23478999.88146     -3448.457
 -25190024.098 8  20603466.915 8 -19110860.76947  20603470.64747       346.349
 -22151008.802 7  21063499.165 7 -16909355.58747  21063500.35047      1949.143
 -10687411.923 6  23261500.306 6  -8015048.15246  23261500.36346      2907.700
 15  1  3  0  5  0.0000000  0  8G02G06G12G14G24G25G29G31
 -14198449.736 6  22742793.784 6  -1110991.63446  22742793.00446      -276.701
  -1940612.526 3  24701588.618 3   3147306.12545  24701593.62145     -2470.365
 -19862132.274 7  21599894.873 7 -14852431.55047  21599895.37747     -1898.488
 -13993885.183 6  22977728.969 6 -10038920.91945  22977730.55945     -1661.446
  -7575514.802 5  23498701.951 5  -5750262.61546  23498706.05946     -3455.440
 -25200255.415 8  20601519.945 8 -19118833.22247  20601523.73347       335.739
 -22209266.210 7  21052413.154 7 -16954750.95647  21052414.24547      1934.679
 -10774520.378 6  23244924.129 6  -8082924.85046  23244924.41446      2899.507
 15  1  3  0  5 30.0000000  0  8G02G06G12G14G24G25G29G31
 -14189888.158 6  22744422.999 6  -1104320.26146  22744422.27946      -294.078
  -1866295.351 3  24715730.685 3   3205215.65345  24715728.95145     -2484.117
 -19805062.111 7  21610754.978 7 -14807961.31547  21610755.27147     -1906.181
 -13943807.928 5  22987258.357 5  -9999899.68345  22987258.88945     -1677.052
  -7471747.398 5  23518448.234 5  -5669404.92346  23518453.06646     -3462.346
 -25210168.129 8  20599633.609 8 -19126557.42047  20599637.26247       325.108
 -22267089.301 8  21041409.782 8 -16999807.90247  21041410.67847      1920.190
 -10861381.609 6  23228394.969 6  -8150608.91446  23228396.10546      2891.242
 15  1  3  0  6  0.0000000  0  8G02G06G12G14G24G25G29G31
 -14180805.119 6  22746151.437 6  -1097242.56646  22746150.56846      -311.491
  -1791566.224 3  24729951.200 3   3263446.10545  24729955.05145     -2497.784
 -19747761.118 7  21621658.998 7 -14763311.20647  21621659.54247     -1913.879
 -13893264.520 5  22996876.448 5  -9960515.23545  22996878.32245     -1692.496
  -7367773.854 5  23538233.757 5  -5588386.60546  23538238.30346     -3469.185
 -25219761.864 8  20597807.970 8 -19134033.05547  20597811.63547       314.470
 -22324477.143 8  21030489.243 8 -17044525.69347  21030490.25147      1905.666
 -10947994.155 6  23211913.129 6  -8218099.20846  23211913.33446      2882.896
 15  1  3  0  6 30.0000000  0  8G02G06G12G14G24G25G29G31
 -14171200.841 6  22747979.081 6  -1089758.70946  22747978.24446      -328.809
  -1716427.460 3  24744249.570 3   3321995.83745  24744256.26145     -2511.417
 -19690229.618 7  21632606.889 7 -14718481.48047  21632607.66247     -1921.558
 -13842257.472 5  23006582.782 5  -9920769.51745  23006584.23245     -1707.949
  -7263596.041 5  23558058.159 5  -5507209.07846  23558061.87046     -3476.017
 -25229036.298 8  20596043.099 8 -19141259.89147  20596046.94747       303.822
 -22381429.293 8  21019651.607 8 -17088903.98047  21019652.68147      1891.135
 -11034355.319 6  23195479.107 6  -8285393.58446  23195479.26146      2874.475
 15  1  3  0  7  0.0000000  0  8G02G06G12G14G24G25G29G31
 -14161075.857 6  22749905.797 6  -1081869.10546  22749904.66546      -346.186
  -1640881.393 3  24758625.508 3   3380862.91345  24758628.20945     -2524.964
 -19632467.957 7  21643598.581 7 -14673472.40947  21643599.18147     -1929.210
 -13790788.931 5  23016376.906 5  -9880664.16345  23016378.23245     -1723.301
  -7159215.656 5  23577921.102 5  -5425873.75645  23577924.40045     -3482.726
 -25237991.070 8  20594339.065 8 -19148237.63747  20594342.93447       293.162
 -22437944.847 8  21008897.052 8 -17132942.07047  21008898.38147      1876.564
 -11120462.806 6  23179093.394 6  -8352490.32146  23179094.44046      2865.991
 15  1  3  0  7 30.0000000  0  8G02G06G12G14G24G25G29G31
 -14150430.199 6  22751931.593 6  -1073573.78646  22751930.74246      -363.541
  -1564930.412 3  24773078.531 3   3440045.49645  24773081.38745     -2538.408
 -19574476.691 7  21654633.955 7 -14628284.42947  21654634.41547     -1936.869
 -13738861.217 5  23026258.415 5  -9840201.03845  23026258.57445     -1738.569
  -7054634.560 5  23597822.239 5  -5344381.99045  23597825.42545     -3489.368
 -25246625.785 8  20592695.936 8 -19154965.99647  20592699.75947       282.494
 -22494023.009 8  20998225.738 8 -17176639.32447  20998226.95547      1861.974
 -11206314.194 6  23162756.399 6  -8419387.48946  23162757.33446      2857.390
 15  1  3  0  8  0.0000000  0  8G02G06G12G14G24G25G29G31
 -14139263.688 6  22754056.493 6  -1064872.60146  22754055.75146      -380.886
  -1488576.953 4  24787608.162 4   3499541.73645  24787611.91245     -2551.784
 -19516257.031 7  21665712.793 7 -14582918.47547  21665713.14547     -1944.451
 -13686476.438 5  23036226.940 5  -9799381.76545  23036228.44645     -1753.748
  -6949855.298 5  23617761.103 5  -5262735.86045  23617765.06745     -3495.947
 -25254940.151 8  20591113.767 8 -19161444.72147  20591117.54247       271.796
 -22549663.317 8  20987637.731 8 -17219995.40547  20987638.91747      1847.379
 -11291907.052 6  23146468.596 6  -8486083.22546  23146469.54546      2848.772
 15  1  3  0  8 30.0000000  0  8G02G06G12G14G24G25G29G31
 -14127576.751 6  22756280.431 6  -1055765.89146  22756279.63746      -398.235
  -1411823.444 4  24802213.920 4   3559349.71645  24802215.26645     -2565.104
 -19457808.884 7  21676835.114 7 -14537374.47747  21676835.78347     -1952.092
 -13633637.163 5  23046281.928 5  -9758208.31745  23046283.04645     -1768.857
  -6844879.727 5  23637737.319 5  -5180936.71745  23637741.44645     -3502.418
 -25262933.768 8  20589592.648 8 -19167673.51947  20589596.51247       261.114
 -22604865.119 8  20977133.165 8 -17263009.78947  20977134.23047      1832.736
 -11377239.627 6  23130230.304 6  -8552576.11746  23130230.39046      2840.031
 15  1  3  0  9  0.0000000  0  8G02G06G12G14G24G25G29G31
 -14115369.622 6  22758603.378 6  -1046253.83346  22758603.06646      -415.566
  -1334672.227 5  24816895.283 5   3619467.51745  24816899.31245     -2578.294
 -19399131.943 7  21688000.973 7 -14491652.19747  21688001.71947     -1959.701
 -13580345.762 5  23056422.947 5  -9716682.54445  23056424.97345     -1783.905
  -6739709.888 5  23657750.504 5  -5098986.22145  23657753.83145     -3508.889
 -25270606.296 8  20588132.622 8 -19173652.11347  20588136.19947       250.388
 -22659627.679 8  20966712.193 8 -17305681.90547  20966713.23647      1818.083
 -11462308.670 6  23114042.196 6  -8618863.69046  23114043.15846      2831.233
 15  1  3  0  9 30.0000000  0  8G02G06G12G14G24G25G29G31
 -14102642.740 6  22761025.227 6  -1036336.78546  22761024.49446      -432.891
  -1257125.699 4  24831651.914 4   3679893.43845  24831652.82445     -2591.460
 -19340227.435 7  21699210.132 7 -14445752.59947  21699210.65647     -1967.269
 -13526604.334 6  23066649.663 6  -9674806.13545  23066650.82845     -1798.880
  -6634347.452 5  23677800.336 5  -5016885.62445  23677804.82145     -3515.259
 -25277957.381 8  20586733.766 8 -19179380.23547  20586737.29547       239.676
 -22713950.232 8  20956374.965 8 -17348011.16347  20956376.04847      1803.405
 -11547112.677 6  23097904.535 6  -8684944.72946  23097905.79946      2822.350
 15  1  3  0 10  0.0000000  0  8G02G06G12G14G24G25G29G31
 -14089396.138 6  22763545.973 6  -1026014.75446  22763545.37746      -450.225
  -1179186.325 5  24846483.295 5   3740625.51245  24846488.21845     -2604.496
 -19281095.754 7  21710462.526 7 -14399675.97847  21710463.52947     -1974.839
 -13472415.673 5  23076961.487 5  -9632581.24545  23076963.11345     -1813.709
  -6528794.699 5  23697886.349 5  -4934636.72245  23697889.65345     -3521.575
 -25284986.677 8  20585396.141 8 -19184857.61847  20585399.76947       228.937
 -22767831.934 8  20946121.602 8 -17389996.89547  20946122.79447      1788.704
 -11631649.200 6  23081817.767 6  -8750817.32746  23081818.13646      2813.389
 15  1  3  0 10 30.0000000  0  8G02G06G12G14G24G25G29G31
 -14075630.208 6  22766165.538 6  -1015288.05046  22766164.30146      -467.525
  -1100856.464 5  24861388.992 5   3801661.81145  24861396.14945     -2617.482
 -19221737.370 7  21721758.052 7 -14353422.71047  21721758.88747     -1982.375
 -13417782.183 5  23087357.929 5  -9590009.69245  23087359.25045     -1828.519
  -6423053.662 5  23718008.195 5  -4852241.14145  23718012.33545     -3527.819
 -25291693.817 8  20584119.822 8 -19190083.96547  20584123.52947       218.187
 -22821272.373 8  20935952.227 8 -17431638.78947  20935953.28247      1773.988
 -11715915.686 6  23065782.378 6  -8816479.51746  23065783.30646      2804.363
 15  1  3  0 11  0.0000000  0  8G02G06G12G14G24G25G29G31
 -14061345.279 6  22768883.862 6  -1004156.94246  22768883.28646      -484.806
  -1022138.654 5  24876368.467 5   3863000.30745  24876372.23845     -2630.373
 -19162152.969 7  21733096.576 7 -14306993.31747  21733097.00947     -1989.909
 -13362705.853 5  23097838.614 5  -9547093.08645  23097839.27945     -1843.222
  -6317125.662 5  23738165.654 5  -4769699.86345  23738169.44545     -3534.012
 -25298078.449 8  20582904.865 8 -19195059.00347  20582908.68847       207.432
 -22874270.656 8  20925866.972 8 -17472936.14447  20925867.96947      1759.243
 -11799909.597 6  23049798.869 6  -8881929.32746  23049799.66346      2795.218
 15  1  3  0 11 30.0000000  0  8G02G06G12G14G24G25G29G31
 -14046541.928 6  22771700.849 6   -992621.85646  22771700.39146      -502.088
   -943035.237 5  24891421.355 5   3924639.47345  24891430.88945     -2643.185
 -19102342.295 7  21744478.180 7 -14260387.61047  21744479.20947     -1997.455
 -13307189.184 5  23108403.105 5  -9503833.37445  23108403.62345     -1857.879
  -6211013.637 5  23758358.146 5  -4687015.17345  23758362.12645     -3540.134
 -25304140.240 8  20581751.344 8 -19199782.48447  20581755.05947       196.675
 -22926826.522 8  20915865.929 8 -17513888.76147  20915867.15447      1744.484
 -11883628.784 6  23033867.619 6  -8947165.05846  23033868.82446      2786.036
 15  1  3  0 12  0.0000000  0  8G02G06G12G14G24G25G29G31
 -14031220.142 6  22774616.464 6   -980682.80046  22774615.37846      -519.370
   -863548.771 5  24906547.140 5   3986576.96145  24906547.94245     -2655.911
 -19042306.157 7  21755902.701 7 -14213606.22547  21755903.36347     -2004.957
 -13251234.760 5  23119050.893 5  -9460232.55046  23119051.82346     -1872.409
  -6104719.453 5  23778585.245 5  -4604188.57245  23778587.57545     -3546.131
 -25309878.824 8  20580659.335 8 -19204254.11547  20580663.15847       185.898
 -22978939.306 8  20905949.197 8 -17554496.12047  20905950.21747      1729.700
 -11967071.076 6  23017989.112 6  -9012185.03546  23017989.77946      2776.765
 15  1  3  0 12 30.0000000  0  8G02G06G12G14G24G25G29G31
 -14015380.506 6  22777630.632 6   -968340.22346  22777630.12146      -536.614
   -783681.665 4  24921745.310 4   4048811.03745  24921749.33545     -2668.545
 -18982045.472 7  21767369.940 7 -14166649.85547  21767370.68247     -2012.448
 -13194845.293 5  23129781.514 5  -9416292.71945  23129783.62645     -1886.868
  -5998244.838 5  23798846.692 5  -4521221.32845  23798850.78445     -3552.144
 -25315293.844 8  20579628.898 8 -19208473.60847  20579632.55847       175.109
 -23030608.508 8  20896116.860 8 -17594757.82947  20896117.94847      1714.907
 -12050233.822 6  23002163.788 6  -9076987.17446  23002164.30546      2767.411
 15  1  3  0 13  0.0000000  0  8G02G06G12G14G24G25G29G31
 -13999023.201 6  22780743.317 6   -955594.26246  22780742.32846      -553.866
   -703436.360 4  24937015.468 4   4111339.90345  24937019.98845     -2681.119
 -18921560.066 7  21778879.942 7 -14119518.38647  21778880.81047     -2019.876
 -13138023.008 5  23140594.486 5  -9372015.64245  23140595.77845     -1901.246
  -5891591.981 5  23819142.022 5  -4438115.20845  23819146.95545     -3558.045
 -25320384.971 8  20578660.093 8 -19212440.72847  20578663.88247       164.301
 -23081833.543 8  20886369.047 8 -17634673.44047  20886370.12647      1700.104
 -12133114.941 6  22986392.017 6  -9141569.86746  22986392.73546      2757.991
 15  1  3  0 13 30.0000000  0  8G02G06G12G14G24G25G29G31
 -13982148.833 6  22783954.422 6   -942445.39846  22783953.85546      -571.101
   -622815.332 4  24952357.121 4   4174161.53645  24952363.92845     -2693.612
 -18860851.314 7  21790432.422 7 -14072212.89647  21790433.06547     -2027.342
 -13080770.412 5  23151489.317 5  -9327403.23945  23151490.16045     -1915.572
  -5784762.981 5  23839470.973 5  -4354871.89845  23839473.77645     -3563.871
 -25325151.848 8  20577752.995 8 -19216155.18147  20577756.56147       153.481
 -23132614.017 8  20876705.846 8 -17674242.63147  20876706.93247      1685.255
 -12215712.429 6  22970674.227 6  -9205931.55346  22970675.19546      2748.491
 15  1  3  0 14  0.0000000  0  8G02G06G12G14G24G25G29G31
 -13964757.650 6  22787263.844 6   -928893.82746  22787263.24946      -588.316
   -541821.115 4  24967769.821 4   4237273.86245  24967773.01745     -2705.999
 -18799918.730 7  21802027.512 7 -14024732.96847  21802027.98147     -2034.826
 -13023089.833 5  23162465.569 5  -9282457.36545  23162467.30145     -1929.797
  -5677759.349 5  23859833.040 5  -4271492.42945  23859838.88945     -3569.673
 -25329594.119 8  20576907.660 8 -19219616.70147  20576911.40447       142.660
 -23182949.092 8  20867127.399 8 -17713464.76047  20867128.43847      1670.401
 -12298023.633 6  22955010.927 6  -9270070.13946  22955011.23346      2738.908
 15  1  3  0 14 30.0000000  0  8G02G06G12G14G24G25G29G31
 -13946850.487 6  22790671.468 6   -914940.19146  22790670.75646      -605.511
   -460456.190 3  24983253.051 3   4300675.13245  24983256.44345     -2718.290
 -18738762.492 7  21813665.166 7 -13977078.77247  21813665.96047     -2042.264
 -12964983.924 5  23173522.719 5  -9237180.03745  23173523.83245     -1943.923
  -5570583.458 5  23880227.994 5  -4187978.80145  23880232.64145     -3575.374
 -25333711.438 8  20576124.172 8 -19222825.00247  20576127.95347       131.822
 -23232838.166 8  20857633.818 8 -17752339.35647  20857634.70547      1655.514
 -12380045.961 6  22939402.622 6  -9333983.64246  22939402.85746      2729.222
 15  1  3  0 15  0.0000000  0  8G02G06G12G14G24G25G29G31
 -13928427.521 6  22794177.237 6   -900584.64446  22794176.76946      -622.691
   -378723.019 3  24998806.320 3   4364363.39445  24998808.44245     -2730.556
 -18677383.478 7  21825345.205 7 -13929250.98947  21825345.93047     -2049.648
 -12906455.498 5  23184660.298 5  -9191573.51245  23184660.95745     -1957.972
  -5463237.682 5  23900655.271 5  -4104332.74745  23900660.36345     -3581.010
 -25337503.491 8  20575402.564 8 -19225779.85147  20575406.18247       120.972
 -23282280.705 8  20848225.220 8 -17790866.00047  20848226.58247      1640.648
 -12461776.888 6  22923849.755 6  -9397670.07546  22923850.15646      2719.496
 15  1  3  0 15 30.0000000  0  8G02G06G12G14G24G25G29G31
 -13909489.311 6  22797781.047 6   -885827.60046  22797780.34146      -639.863
   -296624.185 3  25014429.162 3   4428336.47445  25014431.70745     -2742.680
 -18615783.053 7  21837067.382 7 -13881250.68347  21837068.56747     -2057.051
 -12847506.752 5  23195877.898 5  -9145639.44045  23195878.54745     -1971.933
  -5355723.656 5  23921114.557 5  -4020555.62845  23921119.04745     -3586.598
 -25340969.878 8  20574742.932 8 -19228480.93347  20574746.75947       110.117
 -23331276.645 8  20838901.592 8 -17829044.64847  20838902.45147      1625.741
 -12543214.461 6  22908352.706 6  -9461127.92646  22908352.92646      2709.674
 15  1  3  0 16  0.0000000  0  8G02G06G12G14G24G25G29G31
 -13890036.131 6  22801482.841 6   -870669.26946  22801481.73446      -657.020
   -214162.065 2  25030121.071 2   4492592.71045  25030126.78445     -2754.732
 -18553960.499 7  21848831.844 7 -13833077.27547  21848832.67547     -2064.446
 -12788140.072 5  23207175.016 5  -9099379.71545  23207177.24145     -1985.812
  -5248043.670 5  23941605.402 5  -3936649.16345  23941610.10745     -3592.095
 -25344110.277 8  20574145.331 8 -19230928.00047  20574149.08447        99.253
 -23379825.299 8  20829663.083 8 -17866874.76047  20829664.18847      1610.821
 -12624356.385 6  22892911.895 6  -9524355.39546  22892913.00146      2699.778
 15  1  3  0 16 30.0000000  0  8G02G06G12G14G24G25G29G31
 -13870068.784 6  22805282.504 6   -855110.29446  22805281.47346      -674.134
   -131339.285 2  25045881.674 2   4557129.97945  25045884.61045     -2766.736
 -18491916.286 7  21860638.499 7 -13784731.15247  21860639.45947     -2071.825
 -12728358.354 5  23218551.104 5  -9052796.58345  23218552.98145     -1999.615
  -5140199.775 5  23962127.421 5  -3852614.97045  23962130.39745     -3597.506
 -25346924.371 8  20573609.817 8 -19233120.80647  20573613.70547        88.350
 -23427926.179 8  20820509.777 8 -17904355.95447  20820510.65447      1595.893
 -12705200.438 6  22877527.780 6  -9587350.75546  22877528.01246      2689.809
 15  1  3  0 17  0.0000000  0  8G02G06G12G14G24G25G29G31
 -13849587.867 6  22809179.912 6   -839151.13246  22809179.08946      -691.253
    -48158.283 2  25061710.484 2   4621946.27145  25061715.92045     -2778.660
 -18429651.313 7  21872487.141 7 -13736213.01446  21872487.88346     -2079.175
 -12668164.228 5  23230005.706 5  -9005892.08845  23230007.53345     -2013.327
  -5032193.958 5  23982680.245 5  -3768454.60745  23982685.44045     -3602.840
 -25349411.793 8  20573136.473 8 -19235059.05947  20573140.37347        77.453
 -23475578.833 8  20811441.775 8 -17941487.89447  20811442.97847      1580.938
 -12785743.964 6  22862200.836 6  -9650111.92546  22862201.16546      2679.745
 15  1  3  0 17 30.0000000  0  8G02G06G12G14G24G25G29G31
 -13828593.845 6  22813174.934 6   -822792.15846  22813174.14646      -708.351
     35378.298 3  25077607.025 3   4687039.74945  25077611.15345     -2790.458
 -18367165.879 7  21884377.738 7 -13687523.08546  21884378.38746     -2086.520
 -12607560.274 5  23241538.289 5  -8958668.26945  23241540.26745     -2026.939
  -4924027.830 5  24003263.573 5  -3684169.31245  24003268.20245     -3608.180
 -25351572.178 8  20572725.378 8 -19236742.47847  20572729.18247        66.559
 -23522782.704 8  20802459.175 8 -17978270.11947  20802460.09047      1565.984
 -12865984.701 6  22846931.519 6  -9712637.17146  22846932.20346      2669.617
 15  1  3  0 18  0.0000000  0  8G02G06G12G14G24G25G29G31
 -13807087.334 6  22817267.502 6   -806033.83846  22817266.72246      -725.426
    119267.950 2  25093570.750 2   4752408.36245  25093575.16145     -2802.174
 -18304460.635 7  21896310.165 7 -13638661.86646  21896310.74546     -2093.843
 -12546549.157 5  23253148.349 5  -8911127.16445  23253149.94845     -2040.467
  -4815703.884 5  24023876.962 5  -3599761.08645  24023883.49145     -3613.400
 -25353405.224 8  20572376.577 8 -19238170.83047  20572380.45247        55.636
 -23569537.593 8  20793562.012 8 -18014702.48947  20793563.07747      1550.998
 -12945920.414 6  22831720.241 6  -9774924.73346  22831720.89546      2659.404
 15  1  3  0 18 30.0000000  0  8G02G06G12G14G24G25G29G31
 -13785068.890 6  22821457.476 6   -788876.60746  22821456.59946      -742.474
    203508.237 1  25109601.007 1   4818049.92144  25109607.36644     -2813.813
 -18241536.120 7  21908284.323 7 -13589629.79746  21908284.92546     -2101.120
 -12485133.311 5  23264835.387 5  -8863270.68245  23264837.16845     -2053.908
  -4707224.122 5  24044520.004 5  -3515231.41445  24044524.13945     -3618.568
 -25354910.575 8  20572090.128 8 -19239343.83647  20572093.78447        44.707
 -23615842.951 8  20784750.385 8 -18050784.57647  20784751.41547      1536.019
 -13025548.745 6  22816567.478 6  -9836972.77346  22816567.89246      2649.130
 15  1  3  0 19  0.0000000  0  8G02G06G12G14G24G25G29G31
 -13762539.412 6  22825744.698 6   -771321.17446  22825743.45346      -759.474
    288096.504 1  25125697.679 1   4883962.82944  25125704.23544     -2825.399
 -18178392.579 7  21920300.157 7 -13540427.05746  21920301.12346     -2108.442
 -12423315.344 5  23276598.941 5  -8815100.87945  23276600.53245     -2067.282
  -4598590.621 5  24065192.194 5  -3430581.92845  24065199.21145     -3623.628
 -25356087.886 8  20571866.101 8 -19240261.22247  20571870.01147        33.778
 -23661698.399 8  20776024.383 8 -18086516.08447  20776025.48147      1521.005
 -13104867.328 6  22801473.665 6  -9898779.44146  22801474.10246      2638.756
 15  1  3  0 19 30.0000000  0  7G02G12G14G24G25G29G31
 -13739499.458 6  22830129.070 6   -753367.96246  22830128.44046      -776.520
 -18115029.687 7  21932357.724 7 -13491053.39246  21932358.32446     -2115.734
 -12361098.059 5  23288438.498 5  -8766619.88745  23288440.24245     -2080.536
  -4489805.443 5  24085893.402 5  -3345814.25645  24085895.81645     -3628.688
 -25356936.813 8  20571704.556 8 -19240922.73147  20571708.31747        22.818
 -23707103.546 8  20767384.065 8 -18121896.70747  20767385.17347      1505.989
 -13183873.636 6  22786439.260 6  -9960342.79046  22786439.53846      2628.307
 15  1  3  0 20  0.0000000  0  8G02G06G12G14G24G25G29G31
 -13715949.216 6  22834610.515 6   -735017.11646  22834609.46046      -793.507
     65405.879 1  25158087.688 1                                     -2848.246
 -18051448.767 7  21944456.792 7 -13441509.82846  21944457.58046     -2122.993
 -12298484.095 5  23300353.617 5  -8717829.83145  23300355.82045     -2093.724
  -4380870.561 5  24106623.054 5  -3260929.96145  24106627.23645     -3633.639
 -25357457.058 8  20571605.552 8 -19241328.11747  20571609.18547        11.870
 -23752058.243 8  20758829.453 8 -18156926.33647  20758830.47747      1490.981
 -13262565.453 6  22771464.695 6 -10021661.06546  22771464.87446      2617.796
 15  1  3  0 20 30.0000000  0  8G02G06G12G14G24G25G29G31
 -13691889.649 6  22839188.892 6   -716269.40046  22839187.91946      -810.459
    151022.821 2  25174380.028 2                                     -2859.517
 -17987650.101 7  21956597.292 7 -13391796.60346  21956597.87446     -2130.243
 -12235475.905 5  23312343.699 5  -8668732.55545  23312345.70345     -2106.816
  -4271788.393 5  24127380.676 5  -3175930.87445  24127387.93445     -3638.505
 -25357648.224 8  20571569.181 8 -19241477.07947  20571572.88647          .892
 -23796562.048 8  20750360.656 8 -18191604.61847  20750361.58747      1475.926
 -13340940.449 6  22756550.437 6 -10082732.48946  22756550.44346      2607.197
 15  1  3  0 21  0.0000000  0  8G02G06G12G14G24G25G29G31
 -13667321.693 6  22843864.027 6   -697125.54146  22843862.96846      -827.391
    236977.528 2  25190736.662 2     40215.43545  25190740.87845     -2870.766
 -17923634.180 7  21968779.144 7 -13341914.07946  21968779.74546     -2137.484
 -12172076.248 5  23324408.272 5  -8619330.24945  23324408.74045     -2119.817
  -4162560.513 5  24148166.049 5  -3090818.24045  24148173.40745     -3643.333
 -25357510.011 8  20571595.479 8 -19241369.38347  20571598.99747       -10.095
 -23840614.385 8  20741977.777 8 -18225931.10147  20741978.78347      1460.884
 -13418996.393 6  22741696.875 6 -10143555.29946  22741697.44246      2596.515
 15  1  3  0 21 30.0000000  0  8G02G06G12G14G24G25G29G31
 -13642245.870 6  22848635.787 6   -677585.94946  22848635.41146      -844.329
    323267.484 2  25207157.076 2    107454.29145  25207158.54945     -2881.884
 -17859401.114 7  21981002.302 7 -13291862.35446  21981003.26646     -2144.707
 -12108287.970 5  23336546.819 5  -8569625.14045  23336549.37145     -2132.721
  -4053189.128 4  24168978.684 4  -3005593.79545  24168982.57945     -3648.057
 -25357042.087 8  20571684.524 8 -19241004.76947  20571687.89547       -21.104
 -23884215.002 8  20733680.856 8 -18259905.59947  20733681.84347      1445.816
 -13496730.812 6  22726904.494 6 -10204127.55646  22726905.76446      2585.760
 15  1  3  0 22  0.0000000  0  8G02G06G12G14G24G25G29G31
 -13616663.056 6  22853504.048 6   -657651.27346  22853503.92346      -861.204
    409890.023 2  25223640.718 2    174952.45245  25223645.45545     -2892.933
 -17794951.799 7  21993266.599 7 -13241642.11946  21993267.67246     -2151.896
 -12044113.767 5  23348758.793 5  -8519619.26145  23348759.12545     -2145.546
  -3943676.938 4  24189818.154 4  -2920259.61045  24189822.08945     -3652.739
 -25356244.145 8  20571836.367 8 -19240383.00147  20571839.80247       -32.103
 -23927363.760 8  20725469.927 8 -18293527.99747  20725470.98447      1430.754
 -13574141.417 6  22712173.744 6 -10264447.49846  22712173.96546      2574.937
 15  1  3  0 22 30.0000000  0  8G02G06G12G14G24G25G29G31
 -13590573.935 6  22858468.655 6   -637322.09046  22858467.35946      -878.085
    496842.552 3  25240187.338 3    242707.61445  25240190.27145     -2903.903
 -17730286.464 7  22005572.017 7 -13191253.55346  22005572.70346     -2159.116
 -11979556.292 5  23361043.667 5  -8469314.86245  23361044.36845     -2158.269
  -3834025.369 4  24210684.106 4  -2834816.87845  24210690.86645     -3657.351
 -25355115.792 8  20572051.089 8 -19239503.76947  20572054.80247       -43.125
 -23970060.265 8  20717345.046 8 -18326797.99747  20717346.16947      1415.671
 -13651225.881 6  22697505.065 6 -10324513.32146  22697505.18746      2564.016
 15  1  3  0 23  0.0000000  0  8G02G06G12G14G24G25G29G31
 -13563979.241 6  22863529.461 6   -616598.94746  22863528.69846      -894.901
    584122.558 4  25256796.237 4    310717.97245  25256799.56345     -2914.777
 -17665405.933 7  22017918.390 7 -13140697.32146  22017918.84346     -2166.274
 -11914618.054 5  23373401.015 5                                     -2170.902
  -3724236.393 4  24231576.288 4  -2749267.02145  24231581.17145     -3661.882
 -25353656.728 8  20572328.744 8 -19238366.83347  20572332.52047       -54.145
 -24012304.281 8  20709306.271 8 -18359715.40047  20709307.15147      1400.582
 -13727981.786 6  22682898.887 6 -10384323.10346  22682899.38046      2553.027
 15  1  3  0 23 30.0000000  0  8G02G06G12G14G24G25G29G31
 -13536879.727 6  22868686.326 6   -595482.45346  22868685.39146      -911.725
    671727.456 4  25273466.940 4    378981.58345  25273473.23445     -2925.544
 -17600309.939 7  22030305.756 7 -13089973.18846  22030306.27646     -2173.457
 -11849302.332 5  23385830.179 5                                     -2183.468
  -3614312.605 5  24252494.156 5  -2663612.15545  24252499.23845     -3666.331
 -25351866.649 8  20572669.394 8 -19236971.97547  20572673.13547       -65.195
 -24054095.521 8  20701353.669 8 -18392279.99847  20701354.65347      1385.498
 -13804406.913 6  22668355.665 6 -10443875.13446  22668356.27746      2541.963
 15  1  3  0 24  0.0000000  0  8G02G06G12G14G24G25G29G31
 -13509276.186 6  22873939.097 6   -573973.20146  22873937.27646      -928.507
    759654.647 3  25290198.923 3    447496.25545  25290203.41045     -2936.255
 -17534998.784 7  22042734.072 7 -13039081.39846  22042734.43646     -2180.602
 -11783611.596 5  23398330.723 5     20507.33845  23398332.96945     -2195.928
  -3504255.761 5  24273437.294 5  -2577853.59945  24273442.64145     -3670.730
 -25349745.183 8  20573073.098 8 -19235318.89047  20573076.70047       -76.246
 -24095433.842 8  20693487.251 8 -18424491.66847  20693488.00847      1370.384
 -13880498.860 6  22653875.853 6 -10503167.57146  22653876.14846      2530.826
 15  1  3  0 24 30.0000000  0  8G02G06G12G14G24G25G29G31
 -13481169.528 6  22879287.602 6   -552071.90246  22879287.00846      -945.253
    847901.456 4  25306991.718 4    516259.91745  25306994.58445     -2946.875
 -17469473.574 7  22055203.126 7 -12988022.81846  22055203.74146     -2187.742
 -11717548.459 5  23410902.115 5     71985.10445  23410904.33145     -2208.266
  -3394067.616 5  24294405.433 5  -2491992.71045  24294409.35945     -3675.114
 -25347292.016 8  20573539.920 8 -19233407.33747  20573543.66347       -87.299
 -24136318.729 8  20685707.113 8 -18456350.01947  20685707.93347      1355.268
 -13956255.239 6  22639459.881 6 -10562198.49846  22639460.50746      2519.598
 15  1  3  0 25  0.0000000  0  8G02G06G12G14G24G25G29G31
 -13452560.558 6  22884731.724 6   -529779.19946  22884730.36046      -961.976
    936465.232 5  25323844.938 5    585270.67245  25323848.31345     -2957.401
 -17403734.760 7  22067712.824 7 -12936797.79046  22067713.48746     -2194.842
 -11651115.721 5  23423543.863 5    123750.85345  23423543.22945     -2220.565
  -3283750.708 5  24315398.039 5  -2406031.50045  24315402.28345     -3679.374
 -25344506.843 8  20574069.919 8 -19231237.07547  20574073.62647       -98.387
 -24176749.981 8  20678013.298 8 -18487854.88747  20678014.30347      1340.139
 -14031673.885 6  22625108.188 6 -10620966.27646  22625109.01946      2508.298
 15  1  3  0 25 30.0000000  0  8G02G06G12G14G24G25G29G31
 -13423450.443 6  22890271.179 6   -507095.99346  22890270.24246      -978.681
   1025343.502 4  25340757.922 4    654526.46245  25340762.10545     -2967.801
 -17337782.868 7  22080263.070 7 -12885406.72246  22080264.33046     -2201.966
 -11584316.286 5  23436255.407 5    175802.33845  23436257.56345     -2232.725
  -3173307.171 5  24336414.790 5  -2319971.61145  24336419.29245     -3683.574
 -25341389.343 8  20574663.159 8 -19228807.86347  20574666.79447      -109.460
 -24216727.631 8  20670405.805 8 -18519006.29247  20670406.71047      1325.024
 -14106752.566 6  22610821.176 6 -10679469.13746  22610821.69546      2496.927
 15  1  3  0 26  0.0000000  0  8G02G06G12G14G24G25G29G31
 -13393840.053 6  22895905.861 6   -484022.96246  22895904.37146      -995.351
   1114533.606 5  25357730.229 5    724025.17545  25357734.99745     -2978.168
 -17271617.623 7  22092853.906 7 -12833849.40746  22092854.69046     -2209.044
 -11517153.133 5  23449036.102 5    228137.25445  23449037.89345     -2244.786
  -3062738.650 5  24357455.312 5  -2233814.30445  24357460.32345     -3687.659
 -25337939.145 8  20575319.702 8 -19226119.40047  20575323.45347      -120.550
 -24256251.261 8  20662884.701 8 -18549803.92447  20662885.48647      1309.880
 -14181488.599 6  22596599.392 6 -10737705.01046  22596599.74746      2485.464
 15  1  3  0 26 30.0000000  0  8G02G06G12G14G24G25G29G31
 -13363729.896 6  22901635.620 6   -460560.50046  22901633.92546     -1011.993
   1204032.972 5  25374761.376 5    793764.90545  25374765.80845     -2988.428
 -17205239.802 7  22105485.195 7 -12782126.44546  22105486.23846     -2216.134
 -11449628.833 5  23461885.556 5    280753.59945  23461887.99645     -2256.806
  -2952047.801 5  24378519.167 5  -2147561.74445  24378522.29245     -3691.689
 -25334155.975 8  20576039.614 8 -19223171.47447  20576043.41147      -131.661
 -24295320.650 8  20655450.042 8 -18580247.60047  20655451.03347      1294.734
 -14255879.591 6  22582443.276 6 -10795672.01546  22582443.63546      2473.937
 15  1  3  0 27  0.0000000  0  8G02G06G12G14G24G25G29G31
 -13333121.040 6  22907460.293 6   -436709.45246  22907458.95546     -1028.595
   1293838.859 5  25391850.875 5    863743.50845  25391854.49445     -2998.593
 -17138650.020 7  22118156.833 7 -12730238.34246  22118157.36946     -2223.201
 -11381745.877 5  23474803.270 5    333649.33745  23474804.92445     -2268.724
  -2841236.734 4  24399605.801 4  -2061215.45545  24399609.94845     -3695.706
 -25330039.518 8  20576822.953 8 -19219963.85547  20576826.73947      -142.779
 -24333935.647 8  20648101.851 8 -18610337.20347  20648102.68747      1279.591
 -14329923.764 6  22568353.121 6 -10853368.77346  22568353.68146      2462.324
 15  1  3  0 27 30.0000000  0  8G02G06G12G14G24G25G29G31
 -13302014.427 6  22913379.686 6   -412470.54046  22913378.66746     -1045.177
   1383948.726 4  25408998.343 4    933958.94544  25409011.90944     -3008.690
 -17071848.428 7  22130868.800 7 -12678185.16246  22130869.75946     -2230.246
 -11313507.464 5  23487788.602 5    386822.13745  23487789.80645     -2280.517
  -2730307.031 5  24420715.113 5  -1974776.76545  24420717.83345     -3699.610
 -25325589.432 8  20577669.787 8 -19216496.26047  20577673.39747      -153.904
 -24372096.555 8  20640840.059 8 -18640072.96847  20640840.91847      1264.443
 -14403618.539 6  22554329.473 6 -10910793.27346  22554330.17746      2450.638
 15  1  3  0 28  0.0000000  0  8G02G06G12G14G24G25G29G31
 -13270411.012 6  22919393.632 6   -387844.49346  22919393.07746     -1061.722
   1474359.986 5  25426203.185 5   1004409.22745  25426209.14345     -3018.723
 -17004835.599 7  22143620.933 7 -12625967.39646  22143621.61946     -2237.273
 -11244916.595 5  23500841.027 5    440269.53645  23500842.93945     -2292.210
  -2619261.128 3  24441846.345 3  -1888247.46545  24441850.40745     -3703.459
 -25320805.400 8  20578580.161 8 -19212768.45247  20578583.90947      -165.045
 -24409802.621 8  20633664.821 8 -18669454.31247  20633665.70547      1249.297
 -14476961.584 6  22540372.766 6 -10967943.69246  22540373.33846      2438.876
 15  1  3  0 28 30.0000000  0  8G02G06G12G14G24G25G29G31
 -13238311.909 6  22925501.898 6   -362832.20146  22925500.56746     -1078.239
   1565070.160 4  25443464.828 4   1075092.46743  25443466.24343     -3028.621
 -16937611.940 7  22156413.182 7 -12573585.33646  22156413.96946     -2244.305
 -11175975.722 5  23513960.061 5    493989.70345  23513962.24845     -2303.826
  -2508101.026 3  24462999.297 3  -1801629.16745  24463003.94945     -3707.226
 -25315687.120 8  20579554.144 8 -19208780.18047  20579557.72447      -176.194
 -24447054.039 8  20626576.112 8 -18698481.38747  20626576.99447      1234.132
 -14549950.562 6  22526483.398 6 -11024818.20646  22526483.80246      2427.037
 15  1  3  0 29  0.0000000  0  8G02G06G12G14G24G25G29G31
 -13205718.008 6  22931704.303 6   -337434.35546  22931702.74046     -1094.706
   1656076.294 3  25460782.672 3                                     -3038.455
 -16870178.139 7  22169245.444 7 -12521039.55246  22169246.12746     -2251.290
 -11106687.749 5  23527145.166 5    547980.30745  23527147.44645     -2315.345
  -2396828.877 3  24484173.646 3  -1714923.65245  24484180.53045     -3710.934
 -25310234.267 8  20580591.799 8 -19204531.20647  20580595.39047      -187.340
 -24483850.522 8  20619573.966 8 -18727153.96547  20619574.85447      1218.963
 -14622583.252 6  22512661.859 6 -11081415.10546  22512662.01446      2415.126
 15  1  3  0 29 30.0000000  0  8G02G06G12G14G24G25G29G31
 -13172630.393 6  22938000.638 6   -311651.81846  22938000.84346     -1111.138
   1747375.949 3  25478156.396 3                                     -3048.155
 -16802534.435 7  22182117.624 7 -12468330.19246  22182118.45446     -2258.288
 -11037055.825 5  23540395.689 5    602238.92945  23540398.15245     -2326.770
  -2285446.680 3  24505368.959 3  -1628132.38045  24505373.55145     -3714.555
 -25304446.554 8  20581693.167 8 -19200021.30647  20581696.87347      -198.498
 -24520192.148 8  20612658.374 8 -18755472.10747  20612659.29547      1203.804
 -14694857.292 6  22498908.563 6 -11137732.53446  22498908.81246      2403.120
 15  1  3  0 30  0.0000000  0  8G02G06G12G14G24G25G29G31
 -13139049.993 6  22944390.759 6   -285485.27146  22944389.94046     -1127.558
   1838966.581 3  25495585.519 3                                     -3057.854
 -16734681.166 7  22195029.677 7 -12415457.53546  22195030.73046     -2265.268
 -10967082.641 5  23553711.163 5    656763.44245  23553713.77345     -2338.095
  -2173956.283 3  24526584.797 3  -1541256.78545  24526589.27945     -3718.120
 -25298323.652 8  20582858.314 8 -19195250.21447  20582861.96047      -209.692
 -24556078.822 8  20605829.350 8 -18783435.74347  20605830.44447      1188.631
 -14766770.172 7  22485224.005 7 -11193768.54346  22485223.75446      2391.052
 15  1  3  0 30 30.0000000  0  7G02G12G14G24G25G29G31
 -13104978.014 6  22950874.456 6   -258935.67146  22950873.67346     -1143.921
 -16666618.793 7  22207981.526 7 -12362421.94646  22207982.19146     -2272.225
 -10896771.201 5  23567091.005 5    711551.57845  23567094.43045     -2349.339
  -2062360.496 3  24547820.765 3  -1454299.07145  24547824.21045     -3721.605
 -25291865.260 8  20584087.309 8 -19190217.70547  20584091.20847      -220.878
 -24591510.339 8  20599086.958 8 -18811044.70947  20599087.85647      1173.466
 -14838319.881 6  22471608.551 6 -11249521.56446  22471609.41346      2378.908
 15  1  3  0 31  0.0000000  0  7G02G12G14G24G25G29G31
 -13070415.340 6  22957451.517 6   -232003.72946  22957451.45646     -1160.269
 -16598347.793 7  22220973.075 7 -12309223.78846  22220973.87046     -2279.184
 -10826124.234 5  23580534.728 5    766601.15845  23580538.45345     -2360.463
  -1950660.761 3  24569076.544 3  -1367260.44844  24569070.31244     -3724.976
 -25285071.077 8  20585380.205 8 -19184923.54647  20585383.76247      -232.084
 -24626486.604 8  20592431.191 8 -18838298.93647  20592432.04447      1158.286
 -14909504.048 7  22458062.656 7 -11304989.74246  22458062.62546      2366.693
 15  1  3  0 31 30.0000000  0  7G02G12G14G24G25G29G31
 -13035362.990 6  22964121.757 6   -204690.21746  22964121.46846     -1176.539
 -16529868.683 7  22234004.231 7 -12255863.46646  22234005.30246     -2286.094
 -10755144.452 5  23594041.707 5    821910.08045  23594042.61045     -2371.491
  -1838859.673 3  24590351.614 3  -1280142.57345  24590354.01045     -3728.356
 -25277940.810 8  20586737.059 8 -19179367.49747  20586740.65447      -243.283
 -24661007.587 8  20585862.058 8 -18865198.39647  20585862.86747      1143.112
 -14980320.456 7  22444586.745 7 -11360171.35546  22444587.14546      2354.388
 15  1  3  0 32  0.0000000  0  7G02G12G14G24G25G29G31
 -12999822.321 6  22970884.912 6   -176996.19946  22970883.14346     -1192.819
 -16461182.186 7  22247074.858 7 -12202341.53446  22247076.07846     -2293.018
 -10683835.060 5  23607611.460 5    877475.78245  23607612.49545     -2382.438
  -1726959.154 4  24611645.614 4  -1192947.34345  24611650.17645     -3731.639
 -25270474.139 8  20588157.912 8 -19173549.31247  20588161.62747      -254.502
 -24695073.524 8  20579379.525 8 -18891743.27247  20579380.67647      1127.945
 -15050766.746 7  22431181.275 7 -11415064.57246  22431181.46846      2342.018
 15  1  3  0 32 30.0000000  0  7G02G12G14G24G25G29G31
 -12963794.178 6  22977740.851 6   -148922.31246  22977740.52746     -1209.059
 -16392287.906 7  22260185.030 7 -12148657.71146  22260185.93546     -2299.922
 -10612198.862 5  23621243.383 5    933296.18745  23621247.78545     -2393.288
  -1614960.903 4  24632958.253 4  -1105675.99045  24632964.67545     -3734.877
 -25262670.768 8  20589642.852 8 -19167468.77747  20589646.70647      -265.731
 -24728684.181 8  20572983.626 8 -18917933.38747  20572984.53747      1112.760
 -15120840.784 7  22417846.639 7 -11469667.71746  22417846.87646      2329.559
 15  1  3  0 33  0.0000000  0  7G02G12G14G24G25G29G31
 -12927279.763 6  22984689.306 6   -120469.52046  22984689.50446     -1225.233
 -16323186.760 7  22273334.542 7 -12094812.68246  22273335.67746     -2306.819
 -10540238.843 5  23634936.924 5    989368.92945  23634937.04945     -2404.036
  -1502867.663 4  24654288.901 4  -1018330.55145  24654293.05045     -3738.001
 -25254530.402 8  20591191.924 8 -19161125.63747  20591195.63847      -276.962
 -24761839.325 8  20566674.407 8 -18943768.55847  20566675.34547      1097.585
 -15190540.046 7  22404583.304 7 -11523978.82546  22404583.71846      2317.034
 15  1  3  0 33 30.0000000  0  7G02G12G14G24G25G29G31
 -12890280.334 6  22991730.089 6    -91638.80246  22991729.87046     -1241.385
 -16253879.061 7  22286523.372 7 -12040806.70246  22286524.16146     -2313.672
 -10467957.744 5  23648691.536 5   1045691.81145  23648692.19245     -2414.662
  -1390681.288 5  24675637.321 5   -930912.62045  24675641.97445     -3741.084
 -25246052.750 8  20592805.173 8 -19154519.67747  20592808.98247      -288.225
 -24794539.491 8  20560451.762 8 -18969249.20647  20560452.72247      1082.414
 -15259862.173 7  22391391.743 7 -11577996.06146  22391392.02846      2304.422
 15  1  3  0 34  0.0000000  0  7G02G12G14G24G25G29G31
 -12852797.026 6  22998862.940 6    -62431.03546  22998862.70846     -1257.504
 -16184365.691 7  22299751.357 7 -11986640.47446  22299752.29646     -2320.541
 -10395358.559 5  23662506.751 5   1102262.63445  23662508.05845     -2425.245
  -1278403.773 5  24697003.058 5   -843423.68145  24697006.00645     -3744.076
 -25237237.515 8  20594482.659 8 -19147650.66947  20594486.54347      -299.462
 -24826784.246 8  20554315.785 8 -18994374.97747  20554316.91247      1067.230
 -15328805.110 7  22378272.339 7 -11631717.83246  22378272.58746      2291.757
 15  1  3  0 34 30.0000000  0  7G02G12G14G24G25G29G31
 -12814831.057 6  23006087.636 6    -32847.16646  23006086.70246     -1273.568
 -16114647.016 7  22313018.395 7 -11932314.26646  22313019.07346     -2327.396
 -10322444.352 5  23676381.887 5   1159078.83845  23676382.42645     -2435.703
  -1166037.373 5  24718385.650 5   -755865.40345  24718390.72745     -3747.027
 -25228084.391 8  20596224.450 8 -19140518.37347  20596228.04847      -310.735
 -24858573.586 8  20548266.476 8 -19019145.88947  20548267.62247      1052.056
 -15397366.390 7  22365225.579 7 -11685142.20246  22365226.13846      2278.983
 15  1  3  0 35  0.0000000  0  7G02G12G14G24G25G29G31
 -12776383.302 6  23013403.999 6     -2887.89546  23013402.08646     -1289.608
 -16044722.999 7  22326324.490 7 -11877828.03346  22326324.92246     -2334.213
 -10249218.031 5  23690316.392 5   1216138.31945  23690317.86845     -2446.046
  -1053584.118 5  24739784.877 5   -668239.51745  24739791.79545     -3749.858
 -25218593.116 8  20598030.587 8 -19133122.58347  20598034.31547      -322.020
 -24889907.985 8  20542303.730 8 -19043562.30047  20542304.81247      1036.916
 -15465544.152 7  22352251.797 7 -11738267.73846  22352251.78546      2266.178
 15  1  3  0 35 30.0000000  0  7G02G12G14G24G25G29G31
 -12737455.360 6  23020811.727 6     27445.56146  23020810.79346     -1305.590
 -15974594.151 7  22339669.608 7 -11823182.19746  22339670.79046     -2341.037
 -10175682.380 5  23704309.788 5   1273438.80845  23704311.87745     -2456.313
   -941046.445 4  24761200.070 4   -580547.81145  24761203.17645     -3752.649
 -25208763.402 8  20599901.110 8 -19125463.06347  20599904.83547      -333.297
 -24920787.573 8  20536427.527 8 -19067624.31047  20536428.71947      1021.721
 -15533336.152 7  22339351.411 7 -11791092.66546  22339351.59746      2253.276
 15  1  3  0 36  0.0000000  0  7G02G12G14G24G25G29G31
 -12698048.357 6  23028310.626 6     58152.31946  23028310.04046     -1321.540
 -15904260.991 7  22353053.580 7 -11768377.15146  22353054.39146     -2347.863
 -10101840.523 5  23718361.442 5   1330977.88745  23718361.52445     -2466.467
   -828426.125 4  24782631.041 4   -492791.77945  24782635.59445     -3755.340
 -25198594.920 8  20601836.115 8 -19117539.58447  20601839.96547      -344.587
 -24951211.704 8  20530638.006 8 -19091331.42247  20530638.92247      1006.555
 -15600739.825 7  22326524.922 7 -11843615.01546  22326525.33346      2240.292
 15  1  3  0 36 30.0000000  0  7G02G12G14G24G25G29G31
 -12658163.518 6  23035900.442 6     89231.40346  23035899.67846     -1337.441
 -15833723.643 7  22366476.406 7 -11713413.02946  22366477.59146     -2354.636
 -10027695.473 5  23732470.777 5   1388753.22545  23732471.95945     -2476.521
   -715725.244 3  24804077.292 3   -404972.88645  24804081.90545     -3758.003
 -25188087.442 8  20603835.624 8 -19109351.94547  20603839.58047      -355.911
 -24981180.771 8  20524935.068 8 -19114683.93747  20524936.06947       991.382
 -15667752.654 7  22313772.810 7 -11895832.80746  22313773.24246      2227.220
 15  1  3  0 37  0.0000000  0  7G02G12G14G24G25G29G31
 -12617801.938 6  23043581.014 6    120681.98846  23043580.57146     -1353.312
 -15762983.137 7  22379937.889 7 -11658290.57046  22379938.66546     -2361.402
  -9953250.010 5  23746637.306 5   1446762.67645  23746638.43745     -2486.490
   -602945.988 2  24825538.393 2   -317092.98645  24825545.05745     -3760.593
 -25177240.674 8  20605899.709 8 -19100899.92547  20605903.45747      -367.220
 -25010695.411 8  20519318.608 8 -19137682.34948  20519319.62648       976.228
 -15734373.011 7  22301095.376 7 -11947744.77546  22301095.39346      2214.112
 15  1  3  0 37 30.0000000  0  7G02G12G14G24G25G29G31
 -12576965.115 6  23051352.030 6    152502.89946  23051351.37346     -1369.130
 -15692039.655 7  22393438.013 7 -11603009.95846  22393439.25746     -2368.165
  -9878507.086 5  23760860.435 5   1505003.91445  23760863.11945     -2496.359
   -490090.447 2  24847014.074 2   -229153.57645  24847020.06345     -3763.099
 -25166054.323 8  20608028.415 8 -19092183.29247  20608032.26547      -378.545
 -25039754.885 8  20513788.766 8 -19160326.08748  20513789.64748       961.058
 -15800598.368 7  22288493.118 7 -11999348.94146  22288493.42846      2200.897
 15  1  3  0 38  0.0000000  0  7G02G12G14G24G25G29G31
 -12535654.207 6  23059213.251 6    184693.20946  23059212.62146     -1384.916
 -15620893.744 7  22406976.663 7 -11547571.60046  22406977.29946     -2374.914
  -9803469.898 5  23775139.513 5   1563474.39945  23775140.89345     -2506.129
   -377161.152 2  24868503.793 2   -141156.81045  24868508.36145     -3765.529
 -25154528.109 8  20610221.789 8 -19083201.82547  20610225.48947      -389.870
 -25068359.661 8  20508345.456 8 -19182615.52048  20508346.52748       945.911
 -15866426.411 7  22275966.441 7 -12050643.51846  22275967.09546      2187.624
 15  1  3  0 38 30.0000000  0  7G02G12G14G24G25G29G31
 -12493870.477 6  23067164.441 6    217251.95446  23067162.84146     -1400.670
 -15549545.775 6  22420553.736 6 -11491975.81046  22420554.65046     -2381.635
  -9728141.293 5  23789474.090 5   1622171.94245  23789477.31245     -2515.775
   -264159.770 2  24890007.189 2    -53103.83645  24890010.76945     -3767.873
 -25142661.790 8  20612479.877 8 -19073955.35247  20612483.70847      -401.217
 -25096510.076 8  20502988.609 8 -19204550.90148  20502989.54948       930.764
 -15931855.145 7  22263515.756 7 -12101626.94246  22263516.06546      2174.278
 15  1  3  0 39  0.0000000  0  7G02G12G14G24G25G29G31
 -12451615.242 6  23075205.376 6    250178.10346  23075204.52146     -1416.354
 -15477996.187 6  22434169.188 6 -11436222.91446  22434170.55846     -2388.345
  -9652524.450 5  23803863.503 5   1681094.14845  23803863.04345     -2525.325
   -151088.365 2  24911524.033 2     35003.76045  24911529.85645     -3770.146
 -25130455.076 8  20614802.725 8 -19064443.62747  20614806.45247      -412.571
 -25124206.363 8  20497718.168 8 -19226132.42548  20497719.24248       915.634
 -15996882.324 7  22251141.500 7 -12152297.46546  22251141.60246      2160.846
 15  1  3  0 39 30.0000000  0  7G02G12G14G24G25G29G31
 -12408890.063 6  23083335.739 6    283470.45546  23083335.17546     -1431.996
 -15406245.472 7  22447822.907 7 -11380313.29946  22447824.38046     -2395.043
  -9576622.279 5  23818307.246 5   1740238.67845  23818309.71045     -2534.794
    -37949.192 3  24933053.695 3    123164.15345  24933058.73245     -3772.392
 -25117907.677 8  20617190.415 8 -19054666.43747  20617194.25847      -423.934
 -25151448.465 8  20492534.155 8 -19247360.02748  20492534.96848       900.503
 -16061505.622 7  22238844.087 7 -12202653.27746  22238844.62046      2147.360
 15  1  3  0 40  0.0000000  0  7G02G12G14G24G25G29G31
 -12365696.106 6  23091555.268 6    317128.07446  23091554.58346     -1447.605
 -15334293.945 7  22461514.854 7 -11324247.19746  22461515.66846     -2401.706
  -9500437.615 5  23832804.707 5   1799603.37745  23832807.44445     -2544.156
     75255.811 2  24954595.839 2    211375.77845  24954598.89145     -3774.593
 -25105019.385 8  20619642.979 8 -19044623.61747  20619646.73247      -435.300
 -25178236.300 8  20487436.601 8 -19268233.66548  20487437.51848       885.350
 -16125722.993 7  22226623.907 7 -12252692.77246  22226624.65046      2133.777
 15  1  3  0 40 30.0000000  0  7G02G12G14G24G25G29G31
 -12322034.447 6  23099863.796 6    351150.14046  23099863.85846     -1463.164
 -15262142.156 7  22475244.908 7 -11268025.05446  22475245.62246     -2408.398
  -9423973.616 5  23847355.346 5   1859185.67445  23847354.56345     -2553.409
    188524.361 3  24976150.180 3    299637.06245  24976159.13345     -3776.650
 -25091789.883 8  20622160.467 8 -19034314.91747  20622164.07447      -446.680
 -25204570.646 8  20482425.336 8 -19288753.92648  20482426.21748       870.246
 -16189531.999 7  22214481.448 7 -12302414.06946  22214482.12146      2120.123
 15  1  3  0 41  0.0000000  0  7G02G12G14G24G25G29G31
 -12277907.018 6  23108260.963 6    385535.15246  23108259.91546     -1478.663
 -15189790.686 6  22489012.924 6 -11211647.31346  22489013.70446     -2415.048
  -9347233.156 5  23861958.559 5   1918983.39245  23861960.80345     -2562.590
    301853.979 4  24997716.156 4    387945.84145  24997729.45345     -3778.670
 -25078218.945 8  20624742.935 8 -19023740.16647  20624746.80247      -458.052
 -25230451.077 8  20477500.452 8 -19308920.48348  20477501.45748       855.119
 -16252930.455 7  22202417.109 7 -12351815.45746  22202417.01146      2106.412
 15  1  3  0 41 30.0000000  0  7G02G12G14G24G25G29G31
 -12233315.050 6  23116746.525 6    420282.13746  23116745.21246     -1494.132
 -15117239.379 6  22502818.976 6 -11155113.85546  22502819.75446     -2421.703
  -9270219.519 5  23876613.817 5   1978994.05545  23876620.10045     -2571.644
    415243.119 4  25019293.500 4    476300.98345  25019295.18845     -3780.634
 -25064306.289 8  20627390.415 8 -19012899.13947  20627394.18547      -469.459
 -25255878.146 8  20472661.845 8 -19328733.78748  20472662.88148       840.015
 -16315916.428 7  22190431.285 7 -12400895.43846  22190431.95446      2092.626
 15  1  3  0 42  0.0000000  0  7G02G12G14G24G25G29G31
 -12188259.792 6  23125320.243 6    455390.11746  23125319.43146     -1509.547
 -15044489.178 6  22516662.886 6 -11098425.40546  22516664.23246     -2428.309
  -9192935.611 5  23891320.484 5   2039215.19845  23891324.16445     -2580.600
    528689.607 3  25040881.624 3    564700.87945  25040886.58745     -3782.480
 -25050051.707 8  20630102.970 8 -19001791.67947  20630106.70347      -480.857
 -25280852.175 8  20467909.449 8 -19348194.05548  20467910.54648       824.916
 -16378487.708 7  22178524.362 7 -12449652.27046  22178524.96846      2078.760
 15  1  3  0 42 30.0000000  0  8G02G12G14G21G24G25G29G31
 -12142742.840 6  23133981.829 6    490857.87046  23133981.33846     -1524.889
 -14971540.628 6  22530544.547 6 -11041582.39946  22530545.88346     -2434.927
  -9115384.417 5  23906078.002 5   2099644.70245  23906080.99045     -2589.454
    -70362.210 1  25278094.909 1                                      3350.710
    642191.162 3  25062480.251 3    653143.66745  25062483.44545     -3784.336
 -25035454.886 8  20632880.661 8 -18990417.53647  20632884.39647      -492.257
 -25305373.376 8  20463243.217 8 -19367301.48048  20463244.20948       809.828
 -16440642.104 7  22166696.759 7 -12498084.26746  22166697.31946      2064.832
 15  1  3  0 43  0.0000000  0  8G02G12G14G21G24G25G29G31
 -12096765.515 6  23142730.995 6    526684.34446  23142730.55446     -1540.241
 -14898393.624 6  22544463.978 6 -10984584.74646  22544464.87846     -2441.546
  -9037568.912 4  23920885.784 4   2160280.15945  23920887.56845     -2598.220
   -170883.292 1  25258966.354 1                                      3350.679
    755745.560 3  25084088.954 3    741627.64845  25084091.02445     -3785.971
 -25020515.602 8  20635723.531 8 -18978776.53847  20635727.19047      -503.677
 -25329441.912 8  20458663.126 8 -19386056.18048  20458664.19348       794.745
 -16502377.189 7  22154948.948 7 -12546189.51746  22154949.45546      2050.814
 15  1  3  0 43 30.0000000  0  7G02G12G14G24G25G29G31
 -12050329.156 6  23151567.537 6    562868.53246  23151566.21846     -1555.524
 -14825049.028 6  22558421.004 6 -10927433.14446  22558422.01746     -2448.111
  -8959492.262 5  23935743.350 5   2221119.03645  23935747.91445     -2606.842
    869350.891 3  25105707.340 3    830151.37445  25105708.64445     -3787.688
 -25005233.621 8  20638631.596 8 -18966868.50347  20638635.53747      -515.119
 -25353058.260 8  20454169.086 8 -19404458.52648  20454170.00448       779.674
