     2.11           OBSERVATION DATA    G (GPS)             RINEX VERSION / TYPE
teqc  2011Oct11     IGN-E (SPG)         20150104 01:26:03UTCPGM / RUN BY / DATE
Linux 2.4.21-27.ELsmp|Opteron|gcc -static|Linux x86_64|=+   COMMENT
BIT 2 OF LLI FLAGS DATA COLLECTED UNDER A/S CONDITION       COMMENT
YEBE                                                        MARKER NAME
13420M001                                                   MARKER NUMBER
Programas GeodesicosInstituto Geografico Nacional           OBSERVER / AGENCY
4644124596          TRIMBLE NETRS       1.2-5               REC # / TYPE / VERS
0180418             TRM29659.00     NONE                    ANT # / TYPE
  4848724.9142  -261632.4716  4123093.9223                  APPROX POSITION XYZ
        0.0000        0.0000        0.0000                  ANTENNA: DELTA H/E/N
     1     1                                                WAVELENGTH FACT L1/2
     6    L1    L2    C1    P2    S1    S2                  # / TYPES OF OBSERV
    16                                                      LEAP SECONDS
 SNR is mapped to RINEX snr flag value [0-9]                COMMENT
  L1 & L2: min(max(int(snr_dBHz/6), 0), 9)                  COMMENT
  2015     1     3     0     0    0.0000000     GPS         TIME OF FIRST OBS
                                                            END OF HEADER
 15  1  3  0  0  0.0000000  0  8G12G29G31G06G25G24G14G02
  -6064007.68447  -4099876.59845  22016329.2424   22016315.3674         44.0004
        34.2504
 -18464278.65248 -14194318.09447  20316767.2034   20316754.0314         48.0004
        42.0004
 -14149088.53147 -10275869.06645  22498734.3984   22498720.4654         43.0004
        31.5004
    767779.53145   -192462.27043  25212898.7114   25212888.4104         34.2504
        18.5004
 -19564537.82048 -13021503.53946  20338314.8134   20338304.5704         48.5004
        41.7504
 -10744330.78946  -6834185.35943  23291504.8834   23291494.9924         37.5004
        22.7504
 -22913772.82047 -15331851.54345  21497038.0474   21497024.9344         44.5004
        33.7504
  -5949543.77746  -5839607.25044  23445942.0704   23445926.5554         40.2504
        25.7504
 15  1  3  0  0 30.0000000  0  8G12G29G31G06G25G24G14G02
  -5994473.86747  -4045694.42245  22029560.5864   22029546.9454         43.2504
        34.5004
 -18511076.82447 -14230784.19146  20307862.1644   20307849.0514         47.5004
        41.7504
 -14232434.77047 -10340814.17245  22482874.1804   22482859.6604         43.0004
        31.2504
    829745.69545   -144176.97343  25224690.0864   25224679.8444         34.5004
        19.2504
 -19551424.95348 -13011285.72347  20340810.3594   20340800.1174         48.2504
        42.2504
 -10649112.87546  -6759989.60544  23309624.6884   23309614.6214         38.0004
        26.0004
 -22878785.03947 -15304588.34445  21503695.7274   21503682.7894         44.7504
        34.0004
  -5944971.19546  -5836044.18744  23446812.3444   23446797.1214         39.7504
        24.7504
 15  1  3  0  1  0.0000000  0  8G12G29G31G06G25G24G14G02
  -5924820.48447  -3991419.08645  22042815.0864   22042802.1484         44.5004
        34.0004
 -18557358.41047 -14266847.75447  20299054.4534   20299041.9264         47.7504
        42.0004
 -14315609.18747 -10405625.39145  22467046.1884   22467032.0784         42.5004
        31.2504
    892143.54745    -95555.26242  25236564.3674   25236554.0664         35.0004
        17.7504
 -19538045.33248 -13000860.04747  20343356.1484   20343345.7304         48.2504
        42.0004
 -10553685.50046  -6685630.64144  23327783.8524   23327774.1954         38.5004
        25.5004
 -22843250.18747 -15276898.85945  21510457.5084   21510444.3954         44.5004
        33.2504
  -5939909.85946  -5832100.28544  23447775.8204   23447759.6024         39.7504
        25.2504
 15  1  3  0  1 30.0000000  0  8G12G29G31G06G25G24G14G02
  -5855047.70747  -3937050.70745  22056091.9694   22056078.7384         43.2504
        33.0004
 -18603122.35248 -14302507.96147  20290346.3284   20290333.5664         48.0004
        42.0004
 -14398609.45347 -10470300.90245  22451251.3364   22451237.8714         42.5004
        31.7504
    954971.03945    -46598.73042  25248519.7344   25248509.1994         34.7504
        17.7504
 -19524399.42248 -12990226.87147  20345952.9454   20345942.5274         48.7504
        42.2504
 -10458049.75446  -6611109.30144  23345982.9614   23345973.3054         38.7504
        26.2504
 -22807169.63347 -15248784.14545  21517323.6094   21517310.6724         44.5004
        33.2504
  -5934359.25046  -5827775.13744  23448831.4534   23448815.8794         39.5004
        24.5004
 15  1  3  0  2  0.0000000  0  8G12G29G31G06G25G24G14G02
  -5785155.74647  -3882589.45745  22069392.4694   22069378.8874         43.2504
        33.5004
 -18648367.87547 -14337764.19947  20281736.5944   20281723.1884         47.7504
        42.5004
 -14481433.55547 -10534839.14845  22435489.8284   22435477.0084         43.0004
        31.7504
   1018226.35945      2691.12142  25260557.2114   25260547.2034         34.2504
        16.7504
 -19510487.60548 -12979386.50047  20348600.7734   20348590.1804         48.2504
        42.0004
 -10362206.86746  -6536426.57044  23364222.1484   23364211.6134         38.2504
        24.5004
 -22770544.80547 -15220245.32445  21524293.2344   21524280.0044         44.2504
        33.2504
  -5928319.00446  -5823068.43744  23449979.9694   23449965.2734         39.5004
        25.5004
 15  1  3  0  2 30.0000000  0  8G12G29G31G06G25G24G14G02
  -5715145.65247  -3828036.16445  22082714.0164   22082701.6644         42.7504
        33.5004
 -18693094.12548 -14372615.81647  20273225.2664   20273211.8014         48.0004
        42.5004
 -14564079.70747 -10599238.71545  22419763.1884   22419750.0744         42.7504
        31.2504
   1081907.41045     52312.71143  25272675.4774   25272665.2344         35.2504
        19.5004
 -19496310.34448 -12968339.27746  20351298.7584   20351287.5204         48.0004
        41.7504
 -10266158.02046  -6461583.33244  23382499.8444   23382488.9574         39.0004
        26.0004
 -22733377.54747 -15191283.83245  21531365.8134   21531352.9344         43.2504
        32.5004
  -5921789.12146  -5817980.21544  23451223.3914   23451208.8134         38.7504
        24.2504
 15  1  3  0  3  0.0000000  0  8G12G29G31G06G25G24G14G02
  -5645018.50447  -3773391.64545  22096059.0864   22096046.4414         43.0004
        33.5004
 -18737300.51647 -14407062.34047  20264813.0944   20264800.3914         47.0004
        42.5004
 -14646545.96947 -10663498.12545  22404070.0864   22404057.0904         43.0004
        32.0004
   1146012.39145    102264.66042  25284875.1334   25284863.8954         34.2504
        16.2504
 -19481868.10547 -12957085.58647  20354046.2424   20354035.8244         47.5004
        42.2504
 -10169905.03146  -6386581.03944  23400815.6414   23400805.0474         38.5004
        25.2504
 -22695669.44547 -15161900.91445  21538541.3364   21538528.5164         43.2504
        32.5004
  -5914769.21946  -5812510.16844  23452558.9384   23452544.5944         38.5004
        25.0004
 15  1  3  0  3 30.0000000  0  8G12G29G31G06G25G24G14G02
  -5574775.19947  -3718656.62945  22109425.9924   22109413.5824         42.5004
        33.5004
 -18780986.25448 -14441103.16847  20256500.0864   20256486.8554         48.0004
        42.5004
 -14728830.21547 -10727615.69945  22388412.3054   22388399.3674         42.2504
        31.0004
   1210539.20745    152545.30543  25297154.6564   25297142.8914         34.0004
        18.5004
 -19467161.26648 -12945625.71947  20356845.2504   20356834.6564         48.0004
        42.5004
 -10073448.96546  -6311420.47344  23419170.7894   23419159.3754         39.0004
        24.7504
 -22657421.95747 -15132097.68745  21545819.2664   21545806.5634         43.2504
        32.7504
  -5907259.03946  -5806658.06644  23453987.6724   23453973.2704         39.5004
        24.2504
 15  1  3  0  4  0.0000000  0  8G12G29G31G06G25G24G14G02
  -5504415.61347  -3663831.00045  22122815.2034   22122802.3834         42.7504
        33.0004
 -18824150.60547 -14474737.71547  20248285.8914   20248272.9534         47.7504
        42.2504
 -14810930.88346 -10791590.22345  22372788.8914   22372776.0124         41.7504
        32.0004
   1275485.83645    203153.03942  25309511.9304   25309501.8054         34.0004
        16.2504
 -19452190.32047 -12933960.04746  20359693.8674   20359683.5664         47.2504
        41.7504
  -9976791.25446  -6236102.77744  23437563.4304   23437552.7774         38.5004
        25.0004
 -22618636.96147 -15101875.63745  21553200.4144   21553187.5354         44.2504
        33.5004
  -5899258.29346  -5800423.70744  23455511.2974   23455496.2504         40.0004
        28.0004
 15  1  3  0  4 30.0000000  0  8G12G29G31G06G25G24G14G02
  -5433940.65647  -3608915.46945  22136225.8134   22136213.2274         42.5004
        33.0004
 -18866793.35248 -14507965.81647  20240171.7114   20240158.7154         48.0004
        42.5004
 -14892845.72347 -10855419.96945  22357201.0234   22357188.2624         42.2504
        31.7504
   1340850.26645    254086.40642  25321951.9454   25321940.2974         33.2504
        16.2504
 -19436955.64147 -12922088.87547  20362593.2114   20362582.3834         47.7504
        42.0004
  -9879933.00446  -6160628.87144  23455995.7974   23455984.4414         38.2504
        24.2504
 -22579316.12947 -15071236.03945  21560682.9224   21560669.9844         44.2504
        33.7504
  -5890767.15246  -5793807.23444  23457127.3984   23457111.9414         40.0004
        24.2504
 15  1  3  0  5  0.0000000  0  8G12G29G31G06G25G24G14G02
  -5363350.99647  -3553910.56245  22149659.0784   22149646.2584         43.2504
        33.2504
 -18908913.15247 -14540786.43047  20232156.2114   20232143.2154         47.5004
        42.5004
 -14974572.64547 -10919103.28545  22341648.6644   22341635.8444         42.7504
        32.0004
   1406630.57445    305343.71542  25334468.5234   25334458.1644         32.5004
        15.5004
 -19421457.68748 -12910012.54747  20365542.5234   20365531.6954         48.0004
        42.0004
  -9782876.10246  -6085000.14543  23474464.8054   23474453.5664         37.5004
        23.7504
 -22539460.80947 -15040179.95745  21568267.4694   21568254.0634         44.5004
        34.0004
  -5881785.28546  -5786808.36344  23458836.7194   23458820.9104         41.0004
        25.7504
 15  1  3  0  5 30.0000000  0  8G12G29G31G06G25G24G14G02
  -5292647.21147  -3498816.72345  22163113.8984   22163100.6094         43.7504
        33.5004
 -18950509.58248 -14573199.23047  20224240.6954   20224228.1684         48.5004
        42.5004
 -15056109.27747 -10982638.31645  22326132.6884   22326120.2194         42.7504
        32.0004
   1472824.59845    356923.39842  25347063.8054   25347054.6174         32.0004
        14.7504
 -19405696.85548 -12897731.38346  20368541.6414   20368530.6954         48.2504
        41.7504
  -9685621.30546  -6009217.16843  23492971.2584   23492960.1954         36.7504
        22.0004
 -22499073.04347 -15008708.99245  21575952.4614   21575939.6994         44.2504
        33.0004
  -5872312.66846  -5779427.10544  23460639.3674   23460623.5594         40.5004
        25.0004
 15  1  3  0  6  0.0000000  0  8G12G29G31G06G25G24G14G02
  -5221830.02347  -3443634.51245  22176590.2194   22176576.8134         43.5004
        33.5004
 -18991581.91047 -14605203.63347  20216425.0314   20216411.6254         47.5004
        42.5004
 -15137454.50447 -11046024.19945  22310653.5784   22310640.2304         42.7504
        32.5004
   1539430.40655    408824.09852  25359739.8914   25359729.5904         30.5004
        13.7504
 -19389673.57448 -12885245.71546  20371590.6024   20371579.6564         48.0004
        41.7504
  -9588170.43746  -5933281.44943  23511515.0234   23511505.1914         37.5004
        22.2504
 -22458154.39847 -14976824.34045  21583738.8984   21583726.1954         44.5004
        33.5004
  -5862348.94546  -5771663.14844  23462534.2504   23462518.7344         40.0004
        24.7504
 15  1  3  0  6 30.0000000  0  8G12G29G31G06G25G24G14G02
  -5150899.98847  -3388364.37545  22190087.8914   22190074.6604         43.7504
        32.5004
 -19032129.77747 -14636799.36747  20208708.8594   20208695.9804         47.7504
        42.5004
 -15218605.94947 -11109259.09445  22295210.6024   22295197.6054         42.5004
        33.5004
   1606445.93845    461044.00842  25372491.5704   25372483.0274         32.7504
        16.7504
 -19373388.29748 -12872555.89546  20374689.0554   20374678.8714         48.0004
        41.5004
  -9490524.82046  -5857194.00043  23530097.4924   23530086.3714         37.7504
        22.7504
 -22416706.86747 -14944527.56645  21591626.0234   21591613.2624         44.0004
        32.7504
  -5851894.10246  -5763516.52043  23464524.8284   23464508.5514         40.0004
        23.7504
 15  1  3  0  7  0.0000000  0  8G12G29G31G06G25G24G14G02
  -5079857.53547  -3333006.63745  22203606.5474   22203592.7894         43.0004
        33.0004
 -19072152.42247 -14667985.84047  20201092.6644   20201079.6684         47.7504
        42.7504
 -15299561.60947 -11172341.41445  22279806.0164   22279792.4924         43.2504
        32.5004
   1673869.09445    513581.46142  25385322.4454   25385314.1954         31.0004
        15.5004
 -19356841.40647 -12859662.21946  20377838.0944   20377827.6174         47.5004
        41.5004
  -9392685.60946  -5780955.67243  23548714.7584   23548704.9844         37.2504
        22.7504
 -22374732.03947 -14911819.92245  21599613.4144   21599600.8874         43.5004
        32.5004
  -5840948.46546  -5754987.43444  23466606.9454   23466591.6644         39.2504
        24.2504
 15  1  3  0  7 30.0000000  0  8G12G29G31G06G25G24G14G02
  -5008703.39847  -3277561.86745  22217146.8524   22217132.9184         43.0004
        32.7504
 -19111649.15248 -14698762.49647  20193576.7894   20193563.9104         48.0004
        42.5004
 -15380319.33647 -11235269.50845  22264437.5314   22264424.4774         43.2504
        33.2504
   1741697.79345    566435.04342  25398229.0084   25398221.1684         31.7504
        16.2504
 -19340033.27048 -12846564.97346  20381036.6804   20381026.2624         48.0004
        41.5004
  -9294654.06646  -5704567.47743  23567370.3674   23567360.0664         37.7504
        23.0004
 -22332231.71147 -14878702.79345  21607701.5554   21607688.3834         44.0004
        32.5004
  -5829511.89546  -5746075.82044  23468782.6254   23468767.6954         39.5004
        24.2504
 15  1  3  0  8  0.0000000  0  8G12G29G31G06G25G24G14G02
  -4937438.93447  -3222031.14845  22230707.5554   22230694.3244         43.2504
        32.7504
 -19150619.73047 -14729129.16847  20186161.0164   20186147.6094         47.7504
        42.7504
 -15460877.03547 -11298041.73845  22249107.9304   22249095.0514         44.0004
        33.0004
   1809929.80545    619602.70342  25411213.4144   25411205.5744         30.5004
        15.5004
 -19322964.45348 -12833264.59846  20384285.0004   20384274.2894         48.0004
        41.5004
  -9196432.09445  -5628030.92243  23586060.1564   23586050.6764         35.5004
        21.5004
 -22289207.53947 -14845177.48445  21615888.1954   21615875.6094         42.7504
        31.7504
  -5817583.89546  -5736781.27343  23471053.0554   23471037.5394         40.2504
        22.7504
 15  1  3  0  8 30.0000000  0  8G12G29G31G06G25G24G14G02
  -4866064.18447  -3166414.46545  22244290.6954   22244276.5274         43.5004
        32.0004
 -19189063.55148 -14759085.39147  20178845.2814   20178832.3444         48.2504
        42.7504
 -15541233.28547 -11360656.99245  22233816.9774   22233804.2734         43.7504
        33.5004
   1878563.17255    673083.26252  25424273.8984   25424266.9384         30.0004
        13.7504
 -19305635.16448 -12819761.25446  20387582.5164   20387571.9224         48.2504
        41.5004
  -9098021.01245  -5551346.99243  23604787.8204   23604777.8714         35.5004
        21.5004
 -22245661.57447 -14811245.57845  21624175.8204   21624161.7704         42.2504
        31.5004
  -5805164.77346  -5727104.02744  23473416.6724   23473400.8634         39.7504
        24.5004
 15  1  3  0  9  0.0000000  0  8G12G29G31G06G25G24G14G02
  -4794578.99247  -3110711.73845  22257892.2974   22257880.0634         43.0004
        31.0004
 -19226980.14547 -14788630.78547  20171629.7894   20171616.9104         47.7504
        43.0004
 -15621385.06647 -11423112.91845  22218564.8754   22218551.4104         44.0004
        33.2504
   1947595.898 5                  25437410.766                          31.750

 -19288045.94547 -12806055.36746  20390929.8054   20390919.2114         47.2504
        41.0004
  -8999422.25045  -5474516.80143  23623550.0704   23623540.2974         34.5004
        20.5004
 -22201595.69547 -14776908.54345  21632560.4924   21632547.6724         42.2504
        31.5004
  -5792254.47346  -5717044.05144  23475873.5314   23475857.4884         39.0004
        24.5004
 15  1  3  0  9 30.0000000  0  8G12G29G31G06G25G24G14G02
  -4722984.69147  -3054924.01245  22271517.6024   22271503.1994         43.0004
        31.7504
 -19264368.86348 -14817764.84447  20164514.9224   20164502.1604         48.2504
        42.7504
 -15701331.19547 -11485408.59845  22203351.3594   22203338.1884         43.5004
        33.2504
   2017025.777 5                  25450624.297                          30.000

 -19270197.15648 -12792147.22346  20394326.2344   20394315.6994         48.2504
        41.5004
  -8900636.91445  -5397541.29743  23642347.1954   23642338.1844         33.5004
        19.2504
 -22157011.52047 -14742167.63745  21641045.2894   21641031.2974         42.5004
        31.7504
  -5778853.26246  -5706601.56244  23478423.5704   23478408.4064         38.5004
        24.0004
 15  1  3  0 10  0.0000000  0  8G12G29G31G06G25G24G14G02
  -4651281.80947  -2999051.64545  22285161.9774   22285148.3954         43.5004
        31.7504
 -19301229.03548 -14846487.03947  20157500.4694   20157487.7074         48.5004
        42.5004
 -15781069.55547 -11547542.38745  22188178.1254   22188164.1334         44.0004
        33.5004
   2086850.60515                  25463910.797                          31.000

 -19252089.19947 -12778037.13346  20397771.7734   20397761.7074         47.7504
        41.5004
  -8801666.65245  -5320421.61743  23661180.1254   23661171.4064         33.7504
        19.7504
 -22111911.37147 -14707024.67645  21649626.6954   21649614.1094         43.5004
        32.0004
  -5764960.91046  -5695776.34044  23481066.6564   23481051.8444         38.7504
        24.5004
 15  1  3  0 10 30.0000000  0  8G12G29G31G06G25G24G14G02
  -4579470.94547  -2943095.14145  22298827.0474   22298813.6414         42.5004
        31.2504
 -19337560.41848 -14874797.19947  20150587.1954   20150574.4924         48.0004
        43.0004
 -15860597.83647 -11609512.46145  22173044.3364   22173030.9884         44.5004
        33.7504
   2157068.29314                  25477275.016                          29.750

 -19233722.47348 -12763725.40246  20401266.9534   20401256.2424         48.2504
        41.5004
  -8702513.00445  -5243159.05943  23680047.9694   23680040.1294         32.5004
        18.2504
 -22066297.09847 -14671481.10245  21658307.3284   21658293.9224         43.5004
        32.0004
  -5750577.63346  -5684568.58643  23483803.1414   23483789.1484         38.2504
        22.2504
 15  1  3  0 11  0.0000000  0  8G12G29G31G06G25G24G14G02
  -4507552.90647  -2887055.13745  22312513.1484   22312498.7464         43.2504
        31.5004
 -19373362.35248 -14902694.79347  20143774.3134   20143760.9064         48.2504
        42.7504
 -15939913.80147 -11671317.10245  22157950.4774   22157938.0084         43.7504
        33.5004
   2227676.67215                  25490709.469                          31.250

 -19215097.37148 -12749212.34446  20404811.3984   20404800.6294         48.2504
        41.7504
  -8603176.63345  -5165754.14842  23698951.6884   23698943.3204         32.5004
        17.2504
 -22020170.28947 -14635538.15645  21667084.4844   21667071.8404         42.7504
        32.2504
  -5735703.52346  -5672978.37943  23486634.3674   23486619.4964         38.0004
        22.7504
 15  1  3  0 11 30.0000000  0  8G12G29G31G06G25G24G14G02
  -4435527.50047  -2830931.46145  22326218.3524   22326205.0634         42.5004
        30.7504
 -19408634.71148 -14930179.74647  20137062.3204   20137049.2664         48.5004
        43.2504
 -16019015.62547 -11732954.88345  22142898.6024   22142884.6094         43.7504
        33.5004
   2298673.60915                  25504220.484                          30.750

 -19196214.30148 -12734498.25446  20408404.6954   20408394.3954         48.2504
        41.7504
  -8503660.00845  -5088208.75443  23717890.9224   23717880.5044         34.0004
        19.2504
 -21973532.95747 -14599197.38745  21675959.2974   21675946.3594         44.0004
        32.7504
  -5720338.89146  -5661005.92643  23489557.6174   23489542.5124         38.5004
        22.5004
 15  1  3  0 12  0.0000000  0  8G12G29G31G06G25G24G14G02
  -4363395.66047  -2774724.84845  22339944.3364   22339931.2814         43.0004
        31.5004
 -19443377.02748 -14957251.68047  20130451.0864   20130438.0314         48.7504
        43.2504
 -16097901.35247 -11794424.26645  22127886.8284   22127873.7734         44.5004
        34.0004
   2370056.859 5                  25517802.695                          32.000

 -19177073.63348 -12719583.45346  20412046.8674   20412036.5664         48.2504
        41.7504
  -8403964.41045  -5010523.89143  23736862.6334   23736852.6844         34.7504
        20.2504
 -21926387.22347 -14562460.46945  21684930.9384   21684918.4104         43.7504
        33.5004
  -5704483.54346  -5648651.11343  23492574.7504   23492559.9384         38.2504
        22.7504
 15  1  3  0 12 30.0000000  0  8G12G29G31G06G25G24G14G02
  -4291158.43047  -2718436.12545  22353691.6174   22353677.3914         43.5004
        30.7504
 -19477589.03548 -14983910.38347  20123940.0944   20123927.7424         48.0004
        43.0004
 -16176568.63347 -11855723.43045  22112916.9144   22112903.1564         44.5004
        34.0004
   2441824.43815                  25531461.922                          31.000

 -19157675.75048 -12704468.22346  20415738.3594   20415727.5904         48.2504
        41.5004
  -8304090.91846  -4932700.42243  23755867.5164   23755858.7384         36.0004
        21.5004
 -21878735.31647 -14525329.12545  21693998.7734   21693985.9534         43.7504
        32.7504
  -5688137.87946  -5635914.21144  23495685.8134   23495670.6484         37.5004
        25.2504
 15  1  3  0 13  0.0000000  0  8G12G29G31G06G25G24G14G02
  -4218815.73047  -2662065.21145  22367456.8204   22367443.8244         43.0004
        31.0004
 -19511270.34048 -15010155.55147  20117531.1174   20117517.8284         48.2504
        42.5004
 -16255015.68447 -11916851.00045  22097988.7664   22097975.1844         44.5004
        34.7504
   2513974.145 5                  25545191.094                          31.250

 -19138021.05948 -12689152.88746  20419478.9304   20419467.7504         49.0004
        41.5004
  -8204041.15645  -4854739.60943  23774906.2734   23774896.9694         35.2504
        21.2504
 -21830579.03147 -14487804.76245  21703163.0234   21703149.7344         43.7504
        31.7504
  -5671301.81246  -5622795.19143  23498890.4224   23498874.2624         40.2504
        22.7504
 15  1  3  0 13 30.0000000  0  8G12G29G31G06G25G24G14G02
  -4146369.02747  -2605613.25045  22381243.7274   22381230.2624         43.0004
        31.0004
 -19544420.78947 -15035987.05947  20111222.8284   20111209.9494         47.7504
        43.0004
 -16333240.73047 -11977805.56645  22083103.0314   22083089.5084         45.0004
        33.5004
   2586503.813 5                  25558992.406                          33.000

 -19118109.93048 -12673637.72346  20423267.3284   20423256.9104         48.5004
        41.7504
  -8103816.71145  -4776642.66043  23793979.0474   23793969.2734         35.0004
        21.5004
 -21781920.37947 -14449888.94145  21712422.4774   21712409.5984         43.2504
        31.7504
  -5653975.73846  -5609294.35244  23502187.4454   23502171.1094         39.7504
        24.5004
 15  1  3  0 14  0.0000000  0  8G12G29G31G06G25G24G14G02
  -4073817.93047  -2549079.94945  22395049.3284   22395035.8054         42.7504
        31.2504
 -19577039.76248 -15061404.43447  20105015.5394   20105002.7774         48.0004
        43.0004
 -16411241.41047 -12038585.31645  22068260.4844   22068246.8444         45.0004
        34.0004
   2659411.125 5                  25572864.625                          30.250

 -19097942.73448 -12657923.02746  20427104.8524   20427094.4924         48.7504
        41.5004
  -8003418.50846  -4698410.36343  23813083.6484   23813074.9304         36.2504
        22.5004
 -21732761.29347 -14411583.17645  21721777.2114   21721763.6884         43.2504
        30.7504
  -5636159.65246  -5595411.67244  23505577.3134   23505561.4454         40.2504
        24.7504
 15  1  3  0 14 30.0000000  0  8G12G29G31G06G25G24G14G02
  -4001162.69147  -2492465.48845  22408875.1414   22408861.9104         42.7504
        32.0004
 -19609126.84047 -15086407.34047  20098909.7034   20098897.0594         47.7504
        43.5004
 -16489015.43447 -12099188.43745  22053460.1254   22053446.4844         45.0004
        34.2504
                                  25586808.047                          26.750

 -19077519.86748 -12642009.10947  20430991.2504   20430981.1844         49.0004
        42.0004
  -7902848.39146  -4620044.05143  23832222.0234   23832212.4844         36.2504
        21.5004
 -21683103.98447 -14372889.18745  21731226.4454   21731213.6844         43.0004
        31.2504
  -5617854.18046  -5581147.68443  23509059.8594   23509044.6374         39.7504
        22.7504
 15  1  3  0 15  0.0000000  0  8G12G29G31G06G25G24G14G02
  -3928404.24247  -2435770.61745  22422720.8364   22422707.7234         42.7504
        31.0004
 -19640681.77348 -15110995.60247  20092905.1254   20092892.0124         48.5004
        44.0004
 -16566560.44947 -12159613.11745  22038703.9924   22038690.1764         45.0004
        33.7504
                                  25600824.398                          26.750

 -19056841.70747 -12625896.25446  20434926.1804   20434916.0554         47.7504
        41.5004
  -7802108.08245  -4541545.14843  23851391.8914   23851382.8794         35.0004
        21.5004
 -21632950.79747 -14333808.79345  21740770.1484   21740757.3874         43.2504
        31.2504
  -5599059.31246  -5566502.34443  23512637.4614   23512621.6524         38.2504
        22.5004
 15  1  3  0 15 30.0000000  0  7G12G29G31G25G24G14G02
  -3855544.05147  -2378996.46545  22436585.8444   22436572.7304         43.2504
        32.0004
 -19671704.70748 -15135169.30147  20087001.6724   20086988.7344         48.0004
        43.7504
 -16643874.84447 -12219858.09045  22023991.0394   22023978.0434         45.0004
        33.0004
 -19035908.59048 -12609584.73046  20438909.3134   20438899.0704         48.0004
        41.7504
  -7701198.76245  -4462914.55543  23870595.2344   23870585.6954         35.7504
        22.0004
 -21582303.50847 -14294343.39545  21750408.4924   21750395.3794         43.5004
        31.5004
  -5579775.41046  -5551475.93044  23516306.9694   23516291.5704         39.5004
        24.5004
 15  1  3  0 16  0.0000000  0  7G12G29G31G25G24G14G02
  -3782581.46947  -2322142.52745  22450469.8444   22450457.0824         43.7504
        30.7504
 -19702195.21948 -15158928.12547  20081199.2504   20081186.5474         48.5004
        43.5004
 -16720956.53147 -12279921.73845  22009323.1804   22009309.4804         44.2504
        33.7504
 -19014720.93048 -12593074.87146  20442941.8984   20442931.2464         48.5004
        41.7504
  -7600122.12546  -4384153.59443  23889830.1954   23889819.9534         38.0004
        22.5004
 -21531164.12947 -14254494.53945  21760140.0004   21760126.8284         43.7504
        31.5004
  -5560002.46146  -5536068.43043  23520069.3984   23520053.7074         40.7504
        22.5004
 15  1  3  0 16 30.0000000  0  7G12G29G31G25G24G14G02
  -3709517.05147  -2265209.24245  22464373.4384   22464360.5594         42.7504
        30.2504
 -19732153.07448 -15182271.89847  20075498.3444   20075485.5234         48.5004
        43.5004
 -16797803.53547 -12339802.51645  21994699.5234   21994686.0004         45.5004
        34.0004
 -18993279.05548 -12576366.91846  20447021.9924   20447011.4574         48.2504
        41.7504
  -7498879.68746  -4305263.41443  23909095.4694   23909085.5204         38.5004
        22.5004
 -21479535.05147 -14214264.09445  21769964.4384   21769951.1484         44.2504
        31.5004
  -5539741.05946  -5520280.30944  23523924.8284   23523909.6054         40.2504
        25.2504
 15  1  3  0 17  0.0000000  0  7G12G29G31G25G24G14G02
  -3636351.72747  -2208197.30545  22478296.7584   22478283.1764         43.2504
        30.2504
 -19761578.05948 -15205200.45347  20069899.5234   20069886.3524         48.5004
        44.0004
 -16874413.43447 -12399498.53545  21980121.1334   21980108.0784         44.5004
        33.5004
 -18971583.34448 -12559461.17246  20451150.8444   20451139.9574         48.2504
        41.2504
  -7397472.83646  -4226245.05943  23928392.3914   23928381.0944         37.2504
        20.0004
 -21427418.53947 -14173653.82845  21779882.2034   21779868.8554         44.2504
        33.0004
  -5518991.58646  -5504111.87144  23527873.2344   23527858.0704         40.0004
        26.2504
 15  1  3  0 17 30.0000000  0  7G12G29G31G25G24G14G02
  -3563085.83647  -2151107.02345  22492238.4844   22492225.4304         43.0004
        30.0004
 -19790469.91448 -15227713.59047  20064401.2734   20064388.1024         48.7504
        43.7504
 -16950784.25447 -12459008.26645  21965588.8754   21965574.6484         44.5004
        34.0004
 -18949634.14547 -12542357.90646  20455327.3754   20455316.7234         47.7504
        41.2504
  -7295902.59446  -4147099.43443  23947720.4614   23947710.3954         37.5004
        22.0004
 -21374816.74647 -14132665.43045  21789891.8134   21789878.2894         44.0004
        31.2504
  -5497754.29346  -5487563.34843  23531914.4454   23531899.2814         39.5004
        23.2504
 15  1  3  0 18  0.0000000  0  7G12G29G31G25G24G14G02
  -3489720.17647  -2093938.98445  22506199.7114   22506186.3634         43.0004
        30.0004
 -19818828.71948 -15249811.35547  20059004.9144   20058991.9184         49.0004
        43.7504
 -17026914.00047 -12518330.13345  21951101.9384   21951087.8284         44.5004
        34.5004
 -18927431.84448 -12525057.41446  20459552.2114   20459541.7934         48.5004
        41.5004
  -7194171.05546  -4067828.16043  23967080.4924   23967069.0204         38.0004
        22.7504
 -21321731.94147 -14091300.65645  21799993.1094   21799980.0554         43.7504
        32.0004
  -5476029.57046  -5470634.99244  23536047.9694   23536033.2734         38.5004
        24.2504
 15  1  3  0 18 30.0000000  0  7G12G29G31G25G24G14G02
  -3416255.27747  -2036693.63345  22520179.2424   22520166.8914         42.7504
        31.2504
 -19846654.16448 -15271493.51647  20053710.1254   20053696.7194         48.7504
        44.0004
 -17102800.50447 -12577462.46945  21936661.0704   21936647.7814         44.5004
        35.5004
 -18904976.76248 -12507559.95746  20463825.5474   20463814.6024         48.5004
        41.0004
  -7092279.55946  -3988432.25043  23986468.5944   23986458.8204         36.7504
        22.0004
 -21268166.18747 -14049561.11345  21810186.6564   21810173.8364         43.7504
        31.5004
  -5453817.78946  -5453327.10544  23540275.6254   23540260.1684         39.7504
        25.5004
 15  1  3  0 19  0.0000000  0  7G12G29G31G25G24G14G02
  -3342691.35947  -1979371.13745  22534177.9844   22534165.2814         42.5004
        31.0004
 -19873946.17248 -15292760.00847  20048516.4064   20048503.0004         48.7504
        44.0004
 -17178441.66447 -12636403.62945  21922267.2504   21922253.1414         44.7504
        34.5004
 -18882269.26647 -12489865.80946  20468146.3284   20468136.0274         47.7504
        41.5004
  -6990229.69545  -3908912.90243  24005887.4774   24005878.2304         35.5004
        20.5004
 -21214121.62547 -14007448.47745  21820471.0474   21820458.1684         43.0004
        32.5004
  -5431119.57046  -5435640.18443  23544594.9304   23544579.1214         38.7504
        22.7504
 15  1  3  0 19 30.0000000  0  7G12G29G31G25G24G14G02
  -3269028.26647  -1921971.33645  22548196.2664   22548182.7424         43.0004
        30.7504
 -19900704.63348 -15313610.74647  20043424.2734   20043411.5124         49.0004
        44.5004
 -17253835.16047 -12695151.80545  21907920.1644   21907906.2304         45.5004
        35.5004
 -18859309.69548 -12471975.23046  20472515.6334   20472504.8634         48.2504
        40.7504
  -6888022.91045  -3829271.30543  24025337.7894   24025327.4304         34.5004
        20.5004
 -21159600.73447 -13964964.69145  21830846.8914   21830833.2504         43.5004
        33.0004
  -5407935.28546  -5417574.48843  23549006.4534   23548990.9384         39.0004
        22.5004
 15  1  3  0 20  0.0000000  0  7G12G29G31G25G24G14G02
  -3195267.27047  -1864495.25445  22562232.8134   22562218.7034         42.5004
        30.5004
 -19926929.69548 -15334045.84847  20038433.7894   20038420.6174         48.7504
        44.5004
 -17328979.03947 -12753705.46945  21893620.8364   21893606.9024         45.7504
        35.0004
 -18836098.43448 -12453888.53946  20476932.7274   20476921.6644         48.2504
        41.0004
  -6785660.75845  -3749508.62143  24044815.9454   24044806.3484         35.0004
        19.7504
 -21104605.74247 -13922111.48045  21841311.7814   21841298.1994         42.5004
        32.0004
  -5384264.86346  -5399129.98443  23553511.0164   23553495.5004         39.5004
        23.7504
 15  1  3  0 20 30.0000000  0  7G12G29G31G25G24G14G02
  -3121408.73447  -1806943.16044  22576287.1174   22576273.7704         42.5004
        29.7504
 -19952621.23448 -15354065.22347  20033544.3984   20033531.8714         49.0004
        44.2504
 -17403871.18047 -12812062.97345  21879369.5164   21879355.4654         45.7504
        35.7504
 -18812635.77747 -12435605.95746  20481397.4924   20481386.4884         47.7504
        41.0004
  -6683145.02045  -3669626.30143  24064324.5004   24064314.7854         34.0004
        19.7504
 -21049138.70747 -13878890.42645  21851866.7664   21851853.3594         42.0004
        31.2504
  -5360109.09046  -5380307.30943  23558108.0634   23558092.0204         40.2504
        23.5004
 15  1  3  0 21  0.0000000  0  7G12G29G31G25G24G14G02
  -3047453.10547  -1749315.41845  22590360.6724   22590347.0314         42.7504
        30.7504
 -19977778.97748 -15373668.65247  20028757.3054   20028744.3094         48.5004
        44.0004
 -17478509.52747 -12870222.72346  21865166.2424   21865152.5434         46.2504
        36.0004
 -18788922.05948 -12417127.73846  20485910.0474   20485899.1604         48.5004
        40.7504
  -6580476.73045  -3589625.10243  24083860.2344   24083852.2774         33.5004
        18.5004
 -20993202.03146 -13835303.41445  21862510.8914   21862498.0704         41.7504
        30.7504
  -5335468.67246  -5361106.98844  23562796.5394   23562781.1994         40.5004
        25.2504
 15  1  3  0 21 30.0000000  0  7G12G29G31G25G24G14G02
  -2973400.60247  -1691612.19945  22604452.3984   22604439.0514         43.0004
        30.5004
 -20002402.99648 -15392856.19147  20024071.6644   20024058.8444         49.0004
        44.2504
 -17552891.87547 -12928182.98846  21851011.6254   21850997.4574         46.0004
        36.0004
 -18764957.68748 -12398454.21146  20490470.2344   20490459.4654         48.5004
        41.5004
  -6477657.66845  -3509506.42243  24103427.8834   24103418.1684         34.7504
        19.0004
 -20936798.22347 -13791352.43045  21873243.6644   21873231.0204         42.0004
        30.7504
  -5310343.92246  -5341529.24244  23567578.8984   23567561.9774         40.0004
        25.5004
 15  1  3  0 22  0.0000000  0  7G12G29G31G25G24G14G02
  -2899252.06647  -1633834.14545  22618561.7664   22618549.2384         42.5004
        30.5004
 -20026493.43448 -15411627.96147  20019487.5394   20019474.3674         48.7504
        44.0004
 -17627016.14147 -12985942.14546  21836906.1174   21836892.6524         46.0004
        36.2504
 -18740742.97348 -12379585.60946  20495078.0084   20495067.7074         48.0004
        41.0004
  -6374690.02045  -3429271.91443  24123021.0394   24123010.9734         35.0004
        18.5004
 -20879929.55946 -13747039.21145  21884065.5164   21884052.4614         41.2504
        30.5004
  -5284735.47346  -5321574.59443  23572451.4774   23572434.8484         38.0004
        22.7504
 15  1  3  0 22 30.0000000  0  7G12G29G31G25G24G14G02
  -2825007.78947  -1575981.49645  22632690.5084   22632677.5704         42.5004
        30.2504
 -20050050.25448 -15429983.91847  20015004.8914   20014991.7774         49.0004
        44.5004
 -17700880.17247 -13043498.52346  21822850.2424   21822836.8364         46.0004
        36.5004
 -18716278.18447 -12360522.14146  20499733.3984   20499722.9224         47.5004
        40.7504
  -6271574.46945  -3348922.16842  24142643.0394   24142633.2664         33.5004
        17.7504
 -20822598.35247 -13702365.55545  21894975.8594   21894962.4534         42.0004
        30.5004
  -5258643.81246  -5301243.45343  23577415.4144   23577399.7814         37.0004
        22.0004
 15  1  3  0 23  0.0000000  0  7G12G29G31G25G24G14G02
  -2750668.61347  -1518054.88745  22646837.2664   22646823.4494         42.0004
        30.5004
 -20073073.55948 -15447924.14547  20010623.5864   20010610.6484         49.5004
        45.0004
 -17774481.79747 -13100850.43446  21808844.5164   21808830.4064         46.0004
        36.7504
 -18691563.72748 -12341264.12146  20504436.6094   20504426.1334         48.2504
        41.5004
  -6168312.62145  -3268458.46542  24162293.6884   24162283.3874         33.5004
        17.2504
 -20764806.78547 -13657333.18745  21905973.1804   21905960.1254         42.5004
        30.7504
  -5232069.41446  -5280536.13343  23582472.9614   23582457.0944         39.5004
        23.5004
 15  1  3  0 23 30.0000000  0  7G12G29G31G25G24G14G02
  -2676234.22346  -1460054.07844  22661000.4844   22660987.4884         41.7504
        29.5004
 -20095563.35248 -15465448.64847  20006343.8834   20006331.2384         49.0004
        45.0004
 -17847818.94147 -13157996.25046  21794888.4694   21794874.5944         45.7504
        36.0004
 -18666599.89148 -12321811.78546  20509186.8284   20509176.4694         48.5004
        41.5004
  -6064906.58645  -3187882.36342  24181970.2814   24181960.9774         34.2504
        17.7504
 -20706557.71947 -13611944.32444  21917057.5084   21917044.2774         42.0004
        29.5004
  -5205012.90646  -5259453.13743  23587621.7584   23587605.7734         38.5004
        22.5004
 15  1  3  0 24  0.0000000  0  7G12G29G31G25G24G14G02
  -2601704.93746  -1401979.32444  22675182.5864   22675170.1174         41.2504
        28.7504
 -20117519.92248 -15482557.64847  20002165.8204   20002152.8244         49.5004
        45.0004
 -17920889.43447 -13214934.28545  21780983.9774   21780969.9844         45.7504
        35.5004
 -18641387.02347 -12302165.39846  20513984.8834   20513974.4064         47.5004
        40.5004
  -5961357.49245  -3107194.79342  24201676.0234   24201665.7814         33.7504
        16.7504
 -20647853.38347 -13566200.69144  21928228.2894   21928215.0594         43.2504
        29.5004
  -5177474.77746  -5237994.84443  23592861.8134   23592846.3554         39.0004
        23.0004
 15  1  3  0 24 30.0000000  0  7G12G29G31G25G24G14G02
  -2527081.82846  -1343831.47744  22689383.6174   22689370.9144         41.0004
        29.5004
 -20138943.05148 -15499250.98847  19998089.1954   19998075.9064         49.2504
        45.0004
 -17993691.11347 -13271662.85246  21767129.7194   21767116.1374         46.0004
        36.2504
 -18615925.40648 -12282325.18446  20518830.3204   20518819.3164         48.0004
        41.0004
  -5857666.62945  -3026396.78942  24221405.8754   24221397.6254         31.5004
        16.2504
 -20588695.95747 -13520104.00844  21939485.8364   21939472.1954         43.2504
        29.7504
  -5149455.77046  -5216161.85243  23598193.4304   23598178.0314         39.0004
        22.2504
 15  1  3  0 25  0.0000000  0  7G12G29G31G25G24G14G02
  -2452365.44946  -1285610.96144  22703601.4694   22703589.4694         41.0004
        29.2504
 -20159832.88348 -15515528.77747  19994113.6564   19994100.5434         49.2504
        45.0004
 -18066221.91447 -13328180.36346  21753327.9694   21753314.4454         46.2504
        36.0004
 -18590215.40247 -12262291.41046  20523722.6334   20523711.8634         47.5004
        40.7504
  -5753836.01645  -2945489.88742  24241164.9144   24241157.0164         33.7504
        17.2504
 -20529087.96947 -13473656.23045  21950829.0704   21950815.8404         43.0004
        30.5004
  -5120956.38346  -5193954.52343  23603616.5944   23603601.3714         37.7504
        23.7504
 15  1  3  0 25 30.0000000  0  7G12G29G31G25G24G14G02
  -2377556.29746  -1227318.14844  22717837.4534   22717824.4574         40.5004
        29.0004
 -20180189.83248 -15531391.32847  19990239.9144   19990227.0944         49.5004
        45.0004
 -18138479.89147 -13384485.27746  21739577.6094   21739564.0864         45.7504
        36.5004
 -18564257.30948 -12242064.33246  20528661.9224   20528651.2704         48.0004
        41.0004
  -5649867.35545  -2864475.38343  24260950.2894   24260941.3364         34.2504
        19.2504
 -20469031.95347 -13426859.34445  21962257.0004   21962244.0634         43.7504
        30.2504
  -5091977.70346  -5171373.74644  23609131.3284   23609115.8714         40.5004
        24.5004
 15  1  3  0 26  0.0000000  0  7G12G29G31G25G24G14G02
  -2302653.92246  -1168952.67644  22732091.4534   22732078.2814         41.0004
        29.2504
 -20200013.84448 -15546838.60947  19986467.6174   19986454.4454         49.2504
        44.7504
 -18210462.47347 -13440575.59446  21725880.2114   21725866.2774         46.0004
        36.0004
 -18538051.41448 -12221644.16046  20533649.1724   20533638.3444         48.2504
        40.5004
  -5545761.63345  -2783354.08642  24280759.8984   24280751.5314         32.7504
        16.7504
 -20408530.57847 -13379715.42244  21973770.4304   21973757.2584         42.7504
        29.2504
  -5062520.27046  -5148419.89844  23614737.8524   23614721.6914         39.5004
        25.2504
 15  1  3  0 26 30.0000000  0  7G12G29G31G25G24G14G02
  -2227659.21546  -1110515.26644  22746361.7114   22746348.8914         40.5004
        28.2504
 -20219305.07048 -15561870.72747  19982796.6564   19982783.7774         49.5004
        45.7504
 -18282167.43047 -13496449.58245  21712234.9304   21712220.9384         45.7504
        35.7504
 -18511598.05947 -12201031.16446  20538683.0864   20538672.1994         47.0004
        40.5004
  -5441521.07045  -2702127.70342  24300596.9844   24300588.4414         33.2504
        15.5004
 -20347586.09047 -13332226.23445  21985367.3914   21985354.6294         43.0004
        31.0004
  -5032584.46146  -5125093.30543  23620433.6564   23620418.3164         39.2504
        23.2504
 15  1  3  0 27  0.0000000  0  7G12G29G31G25G24G14G02
  -2152572.80146  -1052006.38744  22760650.3444   22760637.6994         40.5004
        28.7504
 -20238063.76648 -15576487.88347  19979227.1724   19979214.0594         49.0004
        45.7504
 -18353593.21947 -13552106.04346  21698643.2034   21698629.0944         46.2504
        36.0004
 -18484897.59048 -12180225.60546  20543763.7734   20543753.0634         48.0004
        40.7504
  -5337147.32045  -2620797.59043  24320459.7584   24320450.6294         34.0004
        19.2504
 -20286200.70347 -13284393.48044  21997048.5394   21997035.8954         42.2504
        29.0004
  -5002171.10246  -5101394.59043  23626221.3204   23626206.1564         39.0004
        23.7504
 15  1  3  0 27 30.0000000  0  7G12G29G31G25G24G14G02
  -2077394.69146   -993426.07844  22774956.6484   22774943.5354         41.0004
        28.5004
 -20256290.58248 -15590690.58647  19975758.4304   19975745.7854         49.5004
        45.7504
 -18424737.38747 -13607543.05546  21685104.8364   21685090.6684         46.2504
        36.2504
 -18457950.25447 -12159227.68446  20548892.0944   20548881.2074         47.7504
        40.5004
  -5232641.40645  -2539364.46943  24340346.6644   24340337.5944         35.0004
        19.7504
 -20224377.26247 -13236219.38344  22008812.9534   22008800.6604         42.5004
        28.5004
  -4971280.88346  -5077324.28544  23632098.8834   23632084.5984         39.7504
        24.5004
 15  1  3  0 28  0.0000000  0  7G12G29G31G25G24G14G02
  -2002125.50446   -934774.79344  22789279.8444   22789266.9654         40.0004
        28.7504
 -20273985.17648 -15604478.57847  19972391.2504   19972378.1374         49.5004
        45.7504
 -18495597.77747 -13662758.93046  21671619.9694   21671606.4454         46.0004
        36.2504
 -18430756.32448 -12138037.61346  20554066.6954   20554055.8674         48.0004
        40.7504
  -5128005.24645  -2457829.89843  24360258.2814   24360249.1524         33.0004
        18.5004
 -20162118.46147 -13187706.05944  22020660.7194   22020647.4884         42.2504
        29.7504
  -4939914.60546  -5052883.02744  23638067.7194   23638053.4344         39.5004
        24.5004
 15  1  3  0 28 30.0000000  0  7G12G29G31G25G24G14G02
  -1926765.55546   -876052.78944  22803620.0784   22803607.4344         39.5004
        28.7504
 -20291148.12948 -15617852.29747  19969125.4534   19969112.4574         49.2504
        45.5004
 -18566172.23447 -13717752.01246  21658190.3984   21658176.5234         46.5004
        36.2504
 -18403316.17648 -12116655.69546  20559288.3914   20559277.4454         48.2504
        40.5004
  -5023240.33645  -2376194.96143  24380194.1644   24380184.6844         33.2504
        18.2504
 -20099426.52046 -13138855.21944  22032590.6954   22032577.6994         41.7504
        29.7504
  -4908073.10946  -5028071.46144  23644127.7734   23644112.7274         40.0004
        25.2504
 15  1  3  0 29  0.0000000  0  7G12G29G31G25G24G14G02
  -1851315.51246   -817260.57044  22817978.2584   22817964.9104         40.2504
        27.5004
 -20307779.58248 -15630811.86347  19965960.2274   19965947.2894         50.0004
        45.2504
 -18636458.62547 -13772520.62146  21644814.8134   21644801.6414         46.0004
        36.2504
 -18375630.07047 -12095082.10546  20564556.7894   20564545.9024         47.5004
        40.2504
  -4918348.39145  -2294460.96142  24400154.8444   24400145.4804         34.2504
        17.2504
 -20036303.96147 -13089668.83644  22044602.8754   22044589.7034         42.0004
        28.2504
  -4875757.10246  -5002890.14544  23650276.5634   23650261.9844         40.0004
        24.5004
 15  1  3  0 29 30.0000000  0  7G12G29G31G25G24G14G02
  -1775775.58246   -758398.30544  22832353.6884   22832339.8134         41.5004
        28.2504
 -20323880.00048 -15643357.64147  19962896.6174   19962883.7384         49.2504
        45.5004
 -18706454.81247 -13827063.10546  21631495.1174   21631481.9454         46.2504
        36.2504
 -18347698.28148 -12073317.07846  20569872.4454   20569861.3834         48.2504
        40.7504
  -4813330.93045  -2212629.25443  24420139.3444   24420129.8054         35.5004
        20.0004
 -19972753.69146 -13040149.17244  22056695.8834   22056683.1804         41.0004
        29.7504
  -4842967.50446  -4977339.80543  23656516.9534   23656501.3794         39.5004
        23.7504
 15  1  3  0 30  0.0000000  0  7G12G29G31G25G24G14G02
  -1700146.05146   -699466.23044  22846744.8284   22846731.1884         41.0004
        27.5004
 -20339449.69548 -15655489.86347  19959933.9224   19959920.6914         49.7504
        45.5004
 -18776158.39547 -13881377.57846  21618231.0234   21618217.7934         45.5004
        36.5004
 -18319521.14548 -12051360.87146  20575233.7814   20575223.3054         48.0004
        40.5004
  -4708189.32845  -2130700.81243  24440147.0784   24440137.5394         33.2504
        18.2504
 -19908778.12146 -12990298.10544  22068869.8524   22068857.2664         41.0004
        29.0004
  -4809704.96546  -4951420.93044  23662846.0234   23662830.8594         39.7504
        24.7504
 15  1  3  0 30 30.0000000  0  7G12G29G31G25G24G14G02
  -1624427.29346   -640464.62544  22861153.9064   22861140.5594         41.0004
        27.2504
 -20354488.88348 -15667208.71547  19957072.1804   19957058.7734         49.5004
        45.7504
 -18845567.51247 -13935462.60246  21605022.9774   21605009.6294         46.5004
        37.0004
 -18291098.92248 -12029213.68746  20580642.8134   20580631.7504         48.0004
        40.0004
  -4602925.76255  -2048677.36752  24460176.4224   24460169.2274         32.7504
        17.2504
 -19844379.97346 -12940117.76244  22081124.0944   22081111.5084         41.5004
        28.2504
  -4775970.49246  -4925134.32443  23669265.8594   23669250.2854         39.7504
        23.5004
 15  1  3  0 31  0.0000000  0  7G12G29G31G25G24G14G02
  -1548619.76646   -581393.88344  22875580.0784   22875566.5554         41.0004
        28.5004
 -20368997.93048 -15678514.46147  19954310.8984   19954297.7274         50.2504
        45.5004
 -18914679.94147 -13989316.45346  21591871.2194   21591857.8134         46.5004
        37.0004
 -18262431.89848 -12006875.75046  20586098.0784   20586086.8984         48.0004
        40.7504
  -4497541.23845  -1966559.64543  24480232.6954   24480221.9264         35.0004
        19.0004
 -19779561.70747 -12889610.04744  22093459.5004   22093446.6804         42.5004
        28.7504
  -4741764.80146  -4898480.54344  23675774.5704   23675758.9964         40.2504
        24.7504
 15  1  3  0 31 30.0000000  0  7G12G29G31G25G24G14G02
  -1472723.91846   -522254.29344  22890022.1414   22890008.7344         41.0004
        27.0004
 -20382977.20348 -15689407.39147  19951650.5704   19951637.6334         49.7504
        45.5004
 -18983493.57447 -14042937.45346  21578777.0554   21578763.2974         46.7504
        37.0004
 -18233520.39547 -11984347.31646  20591599.5394   20591588.7704         47.7504
        40.7504
  -4392038.05545  -1884349.37543  24500308.7974   24500298.9654         34.2504
        19.0004
 -19714325.76647 -12838776.86344  22105872.3054   22105860.0704         42.5004
        28.5004
  -4707088.61746  -4871460.13743  23682373.1094   23682357.8284         40.5004
        23.7504
 15  1  3  0 32  0.0000000  0  7G12G29G31G25G24G14G02
  -1396740.40646   -463046.38344  22904480.5784   22904468.2274         41.0004
        28.5004
 -20396427.40648 -15699888.06247  19949091.2584   19949078.3794         49.7504
        45.5004
 -19052006.20747 -14096323.91446  21565739.1954   21565726.0234         46.5004
        37.7504
 -18204364.64848 -11961628.55146  20597147.6024   20597136.7734         48.5004
        41.0004
  -4286417.40245  -1802047.61743  24520407.6484   24520398.0514         32.2504
        18.2504
 -19648675.07847 -12787620.50044  22118366.2504   22118353.0784         43.0004
        28.7504
  -4671943.23846  -4844074.11343  23689061.7814   23689045.2704         40.0004
        22.2504
 15  1  3  0 32 30.0000000  0  7G12G29G31G25G24G14G02
  -1320668.72346   -403769.77044  22918955.7894   22918943.4384         40.5004
        27.7504
 -20409348.70348 -15709956.60247  19946632.4384   19946619.6174         49.7504
        46.0004
 -19120215.81247 -14149474.25446  21552759.1954   21552745.9064         46.5004
        37.5004
 -18174964.93747 -11938719.69546  20602742.1564   20602731.5044         47.5004
        41.0004
  -4180680.63345  -1719655.43042  24540528.5314   24540519.5784         32.0004
        17.2504
 -19582612.20347 -12736142.95344  22130937.3054   22130924.3674         42.7504
        29.0004
  -4636329.16046  -4816322.91443  23695837.4454   23695822.9844         39.7504
        23.0004
 15  1  3  0 33  0.0000000  0  7G12G29G31G25G24G14G02
  -1244509.78146   -344425.16044  22933449.3524   22933436.1804         39.7504
        26.5004
 -20421741.33248 -15719613.19147  19944274.4304   19944261.2584         49.5004
        46.0004
 -19188120.00447 -14202386.60246  21539837.9454   21539823.6024         46.5004
        37.2504
 -18145321.56648 -11915620.96546  20608383.3134   20608372.4844         48.2504
        40.7504
  -4074829.94945  -1637174.48843  24560671.0084   24560662.2304         31.5004
        18.5004
 -19516139.85247 -12684346.33244  22143585.9694   22143573.9104         42.5004
        28.5004
  -4600247.43446  -4788207.26643  23702703.7424   23702688.1684         39.7504
        22.5004
 15  1  3  0 33 30.0000000  0  7G12G29G31G25G24G14G02
  -1168263.73446   -285012.69144  22947958.4694   22947946.0594         40.0004
        28.0004
 -20433606.26648 -15728858.59047  19942016.6484   19942003.5354         49.5004
        46.0004
 -19255716.52347 -14255059.21146  21526974.1334   21526960.9024         46.0004
        37.0004
 -18115434.75448 -11892332.55146  20614070.5004   20614059.9654         48.0004
        40.7504
  -3968866.86345  -1554605.94542  24580835.0864   24580826.9534         32.0004
        17.7504
 -19449260.48447 -12632232.56244  22156312.7344   22156300.7344         42.5004
        28.2504
  -4563699.12946  -4759728.05943  23709659.8054   23709643.4104         40.0004
        22.5004
 15  1  3  0 34  0.0000000  0  7G12G29G31G25G24G14G02
  -1091931.44546   -225533.01644  22962484.7114   22962471.5984         40.7504
        28.5004
 -20444943.53148 -15737692.82047  19939859.0004   19939845.9454         49.7504
        45.7504
 -19323003.44947 -14307490.57046  21514170.0474   21514156.8164         46.0004
        37.2504
 -18085304.84448 -11868854.70346  20619803.9614   20619793.6604         48.0004
        41.2504
  -3862792.77345  -1471950.92642  24601020.5864   24601011.7504         31.7504
        16.7504
 -19381976.94147 -12579803.83644  22169116.8754   22169104.2304         43.0004
        29.0004
  -4526685.10946  -4730885.99243  23716702.7734   23716686.4964         40.0004
        22.5004
 15  1  3  0 34 30.0000000  0  7G12G29G31G25G24G14G02
  -1015513.16446   -165986.34044  22977026.2814   22977013.5204         39.7504
        28.2504
 -20455753.60548 -15746116.24647  19937801.6564   19937788.9534         49.0004
        45.5004
 -19389978.41447 -14359678.84046  21501425.5314   21501411.3634         45.7504
        37.0004
 -18054932.04748 -11845187.59046  20625583.5554   20625573.1954         48.2504
        40.5004
  -3756609.46545  -1389210.69942  24621225.0784   24621218.5864         31.2504
        16.2504
 -19314292.01247 -12527062.34444  22181997.4924   22181984.1454         42.2504
        28.5004
  -4489206.45746  -4701681.83244  23723834.8204   23723818.7774         40.5004
        25.0004
 15  1  3  0 35  0.0000000  0  7G12G29G31G25G24G14G02
   -939008.76246   -106372.53944  22991585.2344   22991571.4184         41.2504
        28.7504
 -20466037.40648 -15754129.59047  19935844.7974   19935831.8594         49.2504
        45.7504
 -19456639.64547 -14411622.64846  21488740.3594   21488726.3094         46.2504
        37.2504
 -18024316.63348 -11821331.42646  20631409.5234   20631398.8134         48.0004
        40.5004
  -3650318.59845  -1306386.77742  24641453.8204   24641445.2774         31.7504
        15.5004
 -19246208.35547 -12474010.16844  22194952.6724   22194940.3794         43.0004
        28.2504
  -4451263.84846  -4672116.14843  23731055.3914   23731039.2894         40.2504
        23.5004
 15  1  3  0 35 30.0000000  0  7G12G29G31G25G24G14G02
   -862418.65246    -46691.96144  23006159.8284   23006146.3634         41.2504
        27.7504
 -20475795.58248 -15761733.35547  19933988.2274   19933975.2894         49.5004
        46.2504
 -19522985.02347 -14463320.34446  21476114.9384   21476101.0044         46.2504
        37.0004
 -17993458.89848 -11797286.44946  20637281.4064   20637271.2814         48.0004
        40.5004
  -3543922.07045  -1223480.52042  24661699.4694   24661691.5124         31.7504
        16.2504
 -19177728.47747 -12420649.24644  22207983.8834   22207971.2384         42.0004
        28.0004
  -4412858.68046  -4642190.05544  23738363.6024   23738347.9694         39.7504
        24.5004
 15  1  3  0 36  0.0000000  0  7G12G29G31G25G24G14G02
   -785743.27346     13055.04744  23020750.6174   23020737.2114         41.2504
        27.5004
 -20485027.92648 -15768927.39547  19932231.1094   19932218.4064         49.5004
        46.2504
 -19589012.04347 -14514769.96146  21463550.5084   21463536.3404         45.7504
        37.5004
 -17962359.06648 -11773052.80946  20643199.6024   20643189.4184         48.0004
        40.0004
  -3437421.32445  -1140493.00842  24681967.6564   24681957.6484         33.2504
        16.7504
 -19108855.41847 -12366981.94944  22221089.8674   22221077.2234         42.0004
        27.2504
  -4373991.82846  -4611904.21143  23745760.1334   23745743.5634         39.5004
        22.2504
 15  1  3  0 36 30.0000000  0  7G12G29G31G25G24G14G02
   -708982.56247     72868.56344  23035358.5004   23035344.3914         42.0004
        28.2504
 -20493735.34848 -15775712.38747  19930574.3054   19930561.1914         49.7504
        46.5004
 -19654718.32047 -14565969.64546  21451047.3594   21451032.8984         45.7504
        37.7504
 -17931017.42647 -11748630.75846  20649163.8364   20649153.3594         47.5004
        40.2504
  -3330817.70745  -1057425.32842  24702253.1334   24702244.0634         33.5004
        14.7504
 -19039591.84846 -12313010.33644  22234270.7894   22234257.5004         41.7504
        27.2504
  -4334664.35546  -4581259.44944  23753243.3054   23753227.6134         39.0004
        24.5004
 15  1  3  0 37  0.0000000  0  7G12G29G31G25G24G14G02
   -632137.56246    132747.74644  23049981.0474   23049967.7584         41.7504
        27.5004
 -20501918.94148 -15782089.21147  19929016.7734   19929003.8954         49.2504
        46.0004
 -19720102.28947 -14616918.18746  21438604.8524   21438590.9774         46.2504
        38.0004
 -17899434.22747 -11724020.47746  20655174.0474   20655163.4534         47.5004
        40.0004
  -3224113.35245   -974279.12142  24722558.7664   24722548.2894         33.2504
        14.7504
 -18969940.36346 -12258736.46944  22247525.2584   22247512.3204         41.2504
        27.0004
  -4294877.15246  -4550256.43043  23760814.6564   23760799.3164         39.5004
        22.7504
 15  1  3  0 37 30.0000000  0  7G12G29G31G25G24G14G02
   -555208.30146    192692.58644  23064620.2424   23064606.4264         41.2504
        27.0004
 -20509578.50448 -15788057.69147  19927559.1484   19927546.3874         49.2504
        46.0004
 -19785161.54747 -14667613.70746  21426224.5944   21426211.0124         45.7504
        37.5004
 -17867609.68447 -11699222.13746  20661230.0704   20661219.5944         47.2504
        40.2504
  -3117309.50045   -891055.44542  24742881.6564   24742872.7624         33.2504
        16.2504
 -18899903.77346 -12204162.52744  22260852.1884   22260840.3054         41.2504
        26.2504
  -4254631.51246  -4518896.19543  23768473.0394   23768457.4064         38.5004
        22.7504
 15  1  3  0 38  0.0000000  0  7G12G29G31G25G24G14G02
   -478195.17646    252702.77344  23079274.9774   23079261.5124         40.7504
        27.0004
 -20516714.93448 -15793618.53147  19926201.0704   19926188.2504         49.7504
        46.0004
 -19849893.77047 -14718054.38346  21413906.3204   21413892.5044         46.0004
        37.7504
 -17835544.08647 -11674235.95746  20667331.7424   20667321.1484         47.5004
        39.7504
  -3010408.52345   -807756.07442  24763225.6484   24763215.4064         34.0004
        16.7504
